prefecture_jp,prefecture_en,spot_name,lat,lon,code
北海道,Hokkaido Island,美唄市東明公園,43.3409847728715,141.895580922512,01370053
北海道,Hokkaido Island,五稜郭公園,41.7970899988148,140.75573667019,01370022
北海道,Hokkaido Island,青葉ヶ丘公園,42.1026541691045,140.575607561163,01370024
北海道,Hokkaido Island,有珠善光寺自然公園,42.5229927913299,140.780671177494,01370028
北海道,Hokkaido Island,二十間道路桜並木,42.4039047289479,142.452357827122,01370029
北海道,Hokkaido Island,えりも町庶野さくら公園,42.0446278302739,143.292374605579,01370030
北海道,Hokkaido Island,モエレ沼公園,43.1225100229351,141.43081957987,01370032
北海道,Hokkaido Island,熊石休養村(ソメイヨシノ),42.1306512030628,140.004743682314,01370041
北海道,Hokkaido Island,さらんべ公園,42.2566820939747,140.254997096102,01370046
北海道,Hokkaido Island,オニウシ公園,42.1013441836429,140.568418218551,01370055
北海道,Hokkaido Island,函館公園,41.7553037799991,140.716331866669,01370057
北海道,Hokkaido Island,熊石休養村(ヤエザクラ),42.1307412056621,140.005443620041,01370061
北海道,Hokkaido Island,小樽公園,43.1879409612743,140.992679854769,01370017
北海道,Hokkaido Island,松前藩戸切地陣屋跡,41.8543380546398,140.619431454519,01370056
北海道,Hokkaido Island,帯広市緑ケ丘公園,42.9045140026571,143.186253828171,01370010
北海道,Hokkaido Island,円山公園,43.0546852417498,141.314272381879,01370015
青森県,Aomori Prefecture,猿賀公園,40.6166729222931,140.564826873784,02370001
青森県,Aomori Prefecture,八戸公園,40.4756945686152,141.513294594538,02370002
青森県,Aomori Prefecture,十和田市官庁街通り(駒街道),40.6124345801613,141.206283795994,02370013
青森県,Aomori Prefecture,野木和公園,40.8518197249086,140.676696756414,02370004
青森県,Aomori Prefecture,いちょう公園,40.6088290109132,141.437864729228,02370005
青森県,Aomori Prefecture,東公園さくら山,40.6350517537837,140.610472236746,02370016
青森県,Aomori Prefecture,早掛沼公園,41.3141398199319,141.223150087461,02370015
青森県,Aomori Prefecture,小川原湖公園,40.7307532321228,141.281132132241,02370020
青森県,Aomori Prefecture,国史跡三戸城跡　城山公園,40.3817602884429,141.265549494649,02370007
青森県,Aomori Prefecture,三八城公園,40.5149299223738,141.487554925748,02370008
青森県,Aomori Prefecture,愛宕公園,40.862656545767,141.133548315992,02370009
青森県,Aomori Prefecture,合浦公園,40.8298238558184,140.778499314452,02370010
青森県,Aomori Prefecture,富士見湖パーク,40.7513651782121,140.373766539848,02370018
青森県,Aomori Prefecture,弘前公園のソメイヨシノ,40.6094619969497,140.467695272557,02370011
青森県,Aomori Prefecture,芦野公園,40.9132892190001,140.451642616969,02370012
青森県,Aomori Prefecture,弘前公園のヤエベニシダレ,40.6094819951599,140.467715269976,02370017
岩手県,Iwate Prefecture,唐丹町本郷桜並木,39.210306283026,141.87784257965,03370019
岩手県,Iwate Prefecture,碁石海岸,38.9913173362807,141.742163930398,03370003
岩手県,Iwate Prefecture,鍋倉公園,39.326207763726,141.52733635284,03370004
岩手県,Iwate Prefecture,巽山公園,40.1889296801761,141.767426692072,03370020
岩手県,Iwate Prefecture,釣山公園,38.9252436965112,141.129187880146,03370021
岩手県,Iwate Prefecture,中尊寺,39.0014550802398,141.10258658047,03370024
岩手県,Iwate Prefecture,西行桜の森,39.0035757647774,141.154762149655,03370027
岩手県,Iwate Prefecture,雫石川園地,39.6848097396099,140.973855808653,03370028
岩手県,Iwate Prefecture,厳美渓,38.9438902822452,141.04790377226,03370006
岩手県,Iwate Prefecture,平泉町内　県道300号線の桜並木,38.9889866365723,141.115336095694,03370007
岩手県,Iwate Prefecture,お物見公園,39.0501401648424,141.119302950628,03370008
岩手県,Iwate Prefecture,水沢公園,39.1358313621293,141.140077279943,03370009
岩手県,Iwate Prefecture,北上展勝地,39.2750462374632,141.126671983544,03370010
岩手県,Iwate Prefecture,花巻温泉,39.4519963038968,141.069028623716,03370011
岩手県,Iwate Prefecture,花巻南温泉峡,39.4178789738243,141.01296485063,03370012
岩手県,Iwate Prefecture,盛岡城跡公園(岩手公園),39.7003911744114,141.15141034537,03370014
岩手県,Iwate Prefecture,高松の池,39.7235485479575,141.142849990098,03370015
岩手県,Iwate Prefecture,小岩井農場,39.7507434463123,141.017309164148,03370016
岩手県,Iwate Prefecture,米内浄水場,39.7449672968951,141.202384059642,03370022
岩手県,Iwate Prefecture,遠野福泉寺,39.3719834927662,141.563131272478,03370018
岩手県,Iwate Prefecture,九戸城跡,40.2675831615519,141.303371610449,03370029
岩手県,Iwate Prefecture,室根山　蟻塚公園,38.9628251690597,141.443620036269,03370001
岩手県,Iwate Prefecture,舘山公園,38.9157383045534,141.334791242454,03370005
岩手県,Iwate Prefecture,毛越寺,38.9871366983853,141.107546827767,03370025
岩手県,Iwate Prefecture,紫波城山公園,39.5645860809009,141.173204788057,03370013
宮城県,Miyagi Prefecture,大衡城跡公園,38.4617789214176,140.880289889862,04370002
宮城県,Miyagi Prefecture,大衡中央公園,38.4735775645781,140.8748597976,04370003
宮城県,Miyagi Prefecture,薬莱山,38.571874318954,140.718468260139,04370021
宮城県,Miyagi Prefecture,西公園,38.2601401691887,140.861990693424,04370023
宮城県,Miyagi Prefecture,松山御本丸公園,38.5072271018957,141.05442333558,04370028
宮城県,Miyagi Prefecture,白石城本丸広場,38.0023134742026,140.617402877228,04370006
宮城県,Miyagi Prefecture,白石川堤一目千本桜,38.0485206395986,140.738070728314,04370007
宮城県,Miyagi Prefecture,船岡城址公園,38.0550903082217,140.759328660365,04370008
宮城県,Miyagi Prefecture,志波彦神社　鹽竈神社,38.3191665228577,141.014685294472,04370010
宮城県,Miyagi Prefecture,日和山公園,38.4233704828493,141.30698622117,04370012
宮城県,Miyagi Prefecture,牡鹿半島　金華山,38.2973382422275,141.551951679569,04370013
宮城県,Miyagi Prefecture,城山公園,38.5452343800571,141.131335198134,04370014
宮城県,Miyagi Prefecture,榴岡公園,38.2604007454615,140.896577808971,04370024
宮城県,Miyagi Prefecture,国営みちのく杜の湖畔公園(ソメイヨシノ),38.180285313817,140.667530519985,04370025
宮城県,Miyagi Prefecture,国営みちのく杜の湖畔公園(ヤマザクラ),38.1803353079456,140.667500520174,04370026
宮城県,Miyagi Prefecture,寺池城址公園,38.6549052711275,141.281417684351,04370029
宮城県,Miyagi Prefecture,館山公園(大崎市三本木),38.5246034134014,140.949661236025,04370018
宮城県,Miyagi Prefecture,リアスブルーライン,38.4399415195976,141.467812101637,04370001
宮城県,Miyagi Prefecture,気仙沼神山川河川敷,38.8865952795942,141.555654241603,04370027
宮城県,Miyagi Prefecture,三神峯公園,38.2250438417515,140.857332696169,04370009
宮城県,Miyagi Prefecture,羽黒山公園(大崎市松山),38.5095167878227,141.050463559018,04370016
宮城県,Miyagi Prefecture,気仙沼大島・亀山,38.8733777807819,141.617909679853,04370005
宮城県,Miyagi Prefecture,県立自然公園旭山,38.4882013465248,141.180923705718,04370015
宮城県,Miyagi Prefecture,西行戻しの松公園,38.3665521307033,141.053399897509,04370011
秋田県,Akita Prefecture,仏沢公園,39.4315005387039,140.613467401691,05370001
秋田県,Akita Prefecture,一丈木公園,39.4674365793092,140.606846297012,05370002
秋田県,Akita Prefecture,大館市ベニヤマ自然パーク,40.1268572693337,140.676810125592,05370003
秋田県,Akita Prefecture,八塩いこいの森,39.262562085277,140.240016195009,05370006
秋田県,Akita Prefecture,御所の台ふれあいパーク,40.388707180524,139.985165510559,05370007
秋田県,Akita Prefecture,鷹巣中央公園,40.214942651848,140.379350773949,05370023
秋田県,Akita Prefecture,桂城公園,40.2725497289826,140.56477272234,05370021
秋田県,Akita Prefecture,能代市役所さくら庭,40.2117168394684,140.026840198438,05370026
秋田県,Akita Prefecture,阿仁河川の桜,40.0016358331876,140.400298855248,05370027
秋田県,Akita Prefecture,桜・菜の花ロード,39.9913899198778,139.999022652936,05370028
秋田県,Akita Prefecture,前森公園,39.1738759927536,140.493149255604,05370010
秋田県,Akita Prefecture,真人公園,39.2096435530952,140.572501018645,05370011
秋田県,Akita Prefecture,横手公園,39.3205516440962,140.569856131891,05370012
秋田県,Akita Prefecture,千秋公園,39.7207010661616,140.12458468803,05370013
秋田県,Akita Prefecture,きみまち阪公園,40.2213298182698,140.256240704151,05370014
秋田県,Akita Prefecture,勢至公園,39.2655362414803,139.923672330399,05370015
秋田県,Akita Prefecture,本荘公園,39.3847156568516,140.047496559572,05370016
秋田県,Akita Prefecture,八乙女公園,39.5348178447219,140.519400457024,05370017
秋田県,Akita Prefecture,桧木内川堤のソメイヨシノ,39.5956320529034,140.560214267444,05370018
秋田県,Akita Prefecture,雀舘公園(五城目町),39.9389677048525,140.123704711718,05370020
山形県,Yamagata Prefecture,白水川堤防桜並木,38.4467216434108,140.371422844482,06370001
山形県,Yamagata Prefecture,堂ノ前公園,38.4516216493882,140.401770098541,06370002
山形県,Yamagata Prefecture,伊佐沢の久保ザクラ,38.0942640256508,140.067034351706,06370003
山形県,Yamagata Prefecture,馬見ヶ崎さくらライン,38.2473827644761,140.359952974979,06370021
山形県,Yamagata Prefecture,最上川堤防千本桜,38.1072622402651,140.044415631727,06370022
山形県,Yamagata Prefecture,草岡の大明神ザクラ,38.1355285837186,140.00816734071,06370025
山形県,Yamagata Prefecture,楯山公園,38.7895680442297,139.974789999526,06370029
山形県,Yamagata Prefecture,新橋緑地,38.9220417399742,139.852574050217,06370030
山形県,Yamagata Prefecture,中山河川公園,39.0580782184055,139.911482894476,06370031
山形県,Yamagata Prefecture,松が岬公園,37.9091544836971,140.104739743058,06370006
山形県,Yamagata Prefecture,烏帽子山公園,38.0506803976762,140.164948226639,06370007
山形県,Yamagata Prefecture,上山城・月岡公園,38.1580508656858,140.27672400014,06370008
山形県,Yamagata Prefecture,みゆき公園,38.172199744934,140.299201481948,06370009
山形県,Yamagata Prefecture,霞城公園,38.2554113751113,140.329575128204,06370010
山形県,Yamagata Prefecture,天童公園(舞鶴山),38.3541616167719,140.375606758641,06370011
山形県,Yamagata Prefecture,東沢公園,38.4815584848528,140.403918541766,06370012
山形県,Yamagata Prefecture,最上公園,38.766566073371,140.29360458106,06370013
山形県,Yamagata Prefecture,寒河江公園,38.3848164594317,140.268064278628,06370014
山形県,Yamagata Prefecture,大山公園,38.7537481083686,139.759119560148,06370015
山形県,Yamagata Prefecture,鶴岡公園,38.7294318471722,139.824265269369,06370016
山形県,Yamagata Prefecture,あつみ温泉　温海川河畔,38.6153102865655,139.608598434842,06370017
山形県,Yamagata Prefecture,日和山公園,38.9199215276632,139.827436235528,06370018
山形県,Yamagata Prefecture,まほろばの緑道,37.9937662802428,140.153211821776,06370026
福島県,Fukushima Prefecture,久慈川河川敷の桜並木,36.9559917469007,140.408868370558,07370002
福島県,Fukushima Prefecture,観月台公園,37.8768055954029,140.542794852029,07370003
福島県,Fukushima Prefecture,夏井千本桜,37.2568138449579,140.653564198197,07370006
福島県,Fukushima Prefecture,城山公園・おとめ桜,37.1327294322234,140.213606449715,07370008
福島県,Fukushima Prefecture,昌建寺,37.158318091969,140.293568630715,07370012
福島県,Fukushima Prefecture,矢祭山公園,36.8516726318572,140.393234471994,07370013
福島県,Fukushima Prefecture,鳥見山公園,37.2494893938711,140.353889423387,07370041
福島県,Fukushima Prefecture,花見山公園,37.7381096120743,140.495945128709,07370035
福島県,Fukushima Prefecture,笹原川千本桜,37.3373381595074,140.24866411762,07370036
福島県,Fukushima Prefecture,今出川・北須川の桜並木,37.1465921297301,140.452925935992,07370048
福島県,Fukushima Prefecture,藤田川ふれあい桜,37.4537573592386,140.343240902876,07370051
福島県,Fukushima Prefecture,棚倉城跡(亀ケ城公園),37.0298334433037,140.385656898462,07370069
福島県,Fukushima Prefecture,会津武家屋敷,37.4853371800319,139.953861786779,07370074
福島県,Fukushima Prefecture,湯野上温泉駅の桜,37.3036455931456,139.895425005359,07370075
福島県,Fukushima Prefecture,開成山公園,37.3980135782473,140.357932249306,07370022
福島県,Fukushima Prefecture,花と歴史の郷　蛇の鼻,37.5137815003231,140.375375470482,07370024
福島県,Fukushima Prefecture,霞ヶ城公園,37.5979334613282,140.430447022286,07370025
福島県,Fukushima Prefecture,岳温泉,37.6058713353522,140.357342728116,07370026
福島県,Fukushima Prefecture,宮川千本桜,37.4567383135705,139.843632258074,07370055
福島県,Fukushima Prefecture,鶴ヶ城公園,37.4877465014,139.929763677195,07370029
福島県,Fukushima Prefecture,福満虚空藏菩薩　圓藏寺,37.533038074,139.724638627502,07370040
福島県,Fukushima Prefecture,白河小峰城,37.1315295492118,140.212956558933,07370058
福島県,Fukushima Prefecture,親水公園,37.1338277098114,140.121724029974,07370059
福島県,Fukushima Prefecture,四季の里　緑水苑,37.4719252294416,140.332560953363,07370061
福島県,Fukushima Prefecture,小沢の桜,37.4197751998003,140.584022470592,07370064
福島県,Fukushima Prefecture,涼ヶ岡八幡神社,37.7770426766858,140.909798965642,07370070
福島県,Fukushima Prefecture,相馬小高神社,37.5688763474105,140.990241869224,07370076
福島県,Fukushima Prefecture,右近清水,37.8746218697224,140.888626231311,07370077
福島県,Fukushima Prefecture,いわき市フラワーセンター,37.089606081362,140.902701205944,07370073
福島県,Fukushima Prefecture,御幸山公園,37.0061840463001,140.847859601436,07370079
福島県,Fukushima Prefecture,中村城跡公園　馬陵公園,37.7976905589811,140.914997583231,07370030
福島県,Fukushima Prefecture,松ヶ岡公園,37.05494944089,140.882814453192,07370031
福島県,Fukushima Prefecture,勿来関跡,36.8685975941038,140.780961492049,07370032
福島県,Fukushima Prefecture,平中央公園,37.050620016277,140.889244118543,07370057
福島県,Fukushima Prefecture,泉崎村さつき公園,37.1552888377831,140.317716764688,07370033
福島県,Fukushima Prefecture,夜の森公園,37.3669180773572,140.997590557443,07370014
福島県,Fukushima Prefecture,町営牧場,37.5701302039069,140.073707929543,07370043
福島県,Fukushima Prefecture,観音寺川,37.5383147629981,140.139893897646,07370045
福島県,Fukushima Prefecture,昭和の森,37.5751795598986,140.067758191187,07370046
福島県,Fukushima Prefecture,亀ヶ城跡,37.5610116997181,140.10350587466,07370028
福島県,Fukushima Prefecture,天神岬スポーツ公園,37.2687288487928,141.012993799017,07370004
東京都,Tokyo Metropolis,国営昭和記念公園,35.7124470455713,139.394879837266,13370001
東京都,Tokyo Metropolis,西新井大師,35.7801465313159,139.779994736506,13370003
東京都,Tokyo Metropolis,塩田耕地堤の桜,35.7397817495979,139.259069857732,13370005
東京都,Tokyo Metropolis,よみうりランド,35.6257484678018,139.517903611915,13370051
東京都,Tokyo Metropolis,池上本門寺,35.5782168352621,139.705880188923,13370028
東京都,Tokyo Metropolis,神代植物公園,35.6713440805723,139.545939184259,13370060
東京都,Tokyo Metropolis,千鳥ヶ淵緑道,35.6908155170772,139.747411555499,13370029
東京都,Tokyo Metropolis,靖国神社,35.6940350937609,139.74289178263,13370031
東京都,Tokyo Metropolis,辰巳の森緑道公園,35.6463514488202,139.814728012081,13370054
東京都,Tokyo Metropolis,芝公園,35.6550893151736,139.746083310709,13370006
東京都,Tokyo Metropolis,砧公園,35.6288499436061,139.621384875009,13370007
東京都,Tokyo Metropolis,都立光が丘公園,35.7637456342607,139.628208097498,13370008
東京都,Tokyo Metropolis,浜離宮恩賜庭園,35.6608489794388,139.762131712705,13370009
東京都,Tokyo Metropolis,旧芝離宮恩賜庭園,35.654509594806,139.758542302682,13370010
東京都,Tokyo Metropolis,小石川後楽園,35.7049340121824,139.747710880598,13370011
東京都,Tokyo Metropolis,旧岩崎邸庭園,35.7093338894853,139.76762902382,13370012
東京都,Tokyo Metropolis,六義園,35.7324810775854,139.748389555917,13370013
東京都,Tokyo Metropolis,向島百花園,35.7241831274996,139.814934411427,13370014
東京都,Tokyo Metropolis,清澄庭園,35.6806374830449,139.797637852825,13370015
東京都,Tokyo Metropolis,旧古河庭園,35.7419600312164,139.746529273985,13370016
東京都,Tokyo Metropolis,都立武蔵野公園,35.6878918666149,139.520520533385,13370032
東京都,Tokyo Metropolis,滝山公園,35.7013470855062,139.329195803381,13370033
東京都,Tokyo Metropolis,善福寺川緑地・和田堀公園,35.690653524956,139.632371117054,13370034
東京都,Tokyo Metropolis,音無親水公園,35.7526187072334,139.735999657724,13370055
東京都,Tokyo Metropolis,石神井公園,35.7392577016038,139.596611849032,13370056
東京都,Tokyo Metropolis,東京ミッドタウン　ミッドタウン・ガーデン,35.6674477196107,139.730414043036,13370058
東京都,Tokyo Metropolis,隅田公園,35.7121442251693,139.804055869182,13370017
東京都,Tokyo Metropolis,都立代々木公園,35.6693369023931,139.695196880837,13370040
東京都,Tokyo Metropolis,上野恩賜公園,35.7140534994197,139.774198260946,13370018
東京都,Tokyo Metropolis,飛鳥山公園,35.7503590016817,139.739019510966,13370035
東京都,Tokyo Metropolis,水元公園,35.7862874378456,139.869497020612,13370036
東京都,Tokyo Metropolis,駒沢オリンピック公園,35.6240311288495,139.659731912159,13370037
東京都,Tokyo Metropolis,井の頭恩賜公園,35.7008214254103,139.574435460455,13370020
東京都,Tokyo Metropolis,小金井公園,35.7143590021176,139.518599474333,13370021
東京都,Tokyo Metropolis,狭山公園,35.7631624549733,139.442623537127,13370022
東京都,Tokyo Metropolis,羽村の堰,35.7554109515186,139.309084984383,13370023
東京都,Tokyo Metropolis,奥多摩湖,35.7925824154419,139.04801495478,13370024
東京都,Tokyo Metropolis,目黒川,35.6454195313663,139.69924764562,13370042
東京都,Tokyo Metropolis,浮間公園,35.7949734361832,139.693591229651,13370044
東京都,Tokyo Metropolis,戸山公園,35.7076629683837,139.704664329964,13370045
東京都,Tokyo Metropolis,都立舎人公園,35.796234590444,139.767395042186,13370046
東京都,Tokyo Metropolis,法明寺,35.7243513424852,139.713772805143,13370047
東京都,Tokyo Metropolis,明治神宮外苑,35.6787462878858,139.717634584162,13370057
東京都,Tokyo Metropolis,釜の淵公園,35.7847568953269,139.256567994773,13370061
東京都,Tokyo Metropolis,福生市多摩川堤防,35.723554734247,139.330574666386,13370062
東京都,Tokyo Metropolis,尾根緑道,35.5861052084207,139.403424144671,13370004
東京都,Tokyo Metropolis,新宿御苑,35.6881642953884,139.707607783265,13370019
東京都,Tokyo Metropolis,八重洲さくら通り,35.6812394910283,139.771438900928,13370043
東京都,Tokyo Metropolis,神田明神,35.7018930510305,139.767953539459,13370050
東京都,Tokyo Metropolis,外濠公園,35.695124924968,139.739901980755,13370049
東京都,Tokyo Metropolis,六本木ヒルズ　毛利庭園・六本木さくら坂,35.6605084674322,139.730734335932,13370052
東京都,Tokyo Metropolis,アークヒルズ,35.6665579765128,139.73967331502,13370038
東京都,Tokyo Metropolis,仙台堀川公園,35.6839378529449,139.839024263733,13370053
東京都,Tokyo Metropolis,播磨坂,35.7167126569579,139.742250791748,13370048
茨城県,Ibaraki Prefecture,西蓮寺,36.0713368710821,140.437546719947,08370004
茨城県,Ibaraki Prefecture,弘経寺,36.0440617284965,139.976116297494,08370007
茨城県,Ibaraki Prefecture,水海道あすなろの里,36.005134962626,139.922902509153,08370008
茨城県,Ibaraki Prefecture,吉野公園,36.0751488360043,140.00088280933,08370009
茨城県,Ibaraki Prefecture,宇留野公園,36.5481955803705,140.421196122418,08370010
茨城県,Ibaraki Prefecture,辰ノ口親水公園,36.5916509200987,140.420494179952,08370011
茨城県,Ibaraki Prefecture,大宮自然公園,36.529167316296,140.404058421799,08370012
茨城県,Ibaraki Prefecture,雨引観音,36.3311435341038,140.119931135916,08370020
茨城県,Ibaraki Prefecture,千波公園,36.368095456667,140.45627150155,08370024
茨城県,Ibaraki Prefecture,佐白山麓公園,36.3841703034886,140.25968708775,08370025
茨城県,Ibaraki Prefecture,神之池緑地公園,35.8904401961557,140.66518614333,08370026
茨城県,Ibaraki Prefecture,福岡堰桜並木,36.0401830584015,140.028502125437,08370027
茨城県,Ibaraki Prefecture,羽黒山公園,35.990266289698,140.480326899695,08370022
茨城県,Ibaraki Prefecture,常陸風土記の丘,36.2070789057283,140.24024685587,08370028
茨城県,Ibaraki Prefecture,平和通り,36.5957545620673,140.654124588031,08370029
茨城県,Ibaraki Prefecture,かみね公園,36.6087032334735,140.657353723671,08370013
茨城県,Ibaraki Prefecture,亀城公園(土浦城址),36.0846712694253,140.198505958318,08370014
茨城県,Ibaraki Prefecture,北条大池周辺,36.1761998334149,140.104269570498,08370015
茨城県,Ibaraki Prefecture,愛宕山,36.2904702030012,140.252661985307,08370016
茨城県,Ibaraki Prefecture,桜山公園,36.3752645427886,140.447851870722,08370021
茨城県,Ibaraki Prefecture,静峰ふるさと公園,36.5010606036563,140.420148379614,08370017
茨城県,Ibaraki Prefecture,西山公園,36.5422778402861,140.514338659404,08370018
茨城県,Ibaraki Prefecture,城跡歴史公園,36.3079419191626,139.885401681808,08370019
茨城県,Ibaraki Prefecture,さくら宇宙公園,36.6987542630928,140.695226432233,08370033
茨城県,Ibaraki Prefecture,十王パノラマ公園,36.6699468078283,140.664510309552,08370006
茨城県,Ibaraki Prefecture,磯部桜川公園,36.3651601848686,140.136488194666,08370002
栃木県,Tochigi Prefecture,壬生町総合公園,36.4614641711449,139.809420923558,09370002
栃木県,Tochigi Prefecture,烏ケ森公園,36.8896310710509,139.963818387279,09370014
栃木県,Tochigi Prefecture,城山公園,36.3186692777185,139.79986829144,09370003
栃木県,Tochigi Prefecture,長峰公園,36.8112989944021,139.937764157632,09370019
栃木県,Tochigi Prefecture,千手山公園,36.5728311240685,139.74443119341,09370005
栃木県,Tochigi Prefecture,嘉多山公園,36.4108661479954,139.612759585887,09370006
栃木県,Tochigi Prefecture,城山公園,36.3185654299174,139.578946643741,09370008
栃木県,Tochigi Prefecture,東雲公園,36.4284876412486,139.806152713282,09370009
栃木県,Tochigi Prefecture,龍城公園,36.8684645686647,140.034443496416,09370015
栃木県,Tochigi Prefecture,龍門の滝,36.6449203193086,140.139795039366,09370022
栃木県,Tochigi Prefecture,三和住宅にしなすのスポーツプラザ,36.8995304537358,139.989095832205,09370023
栃木県,Tochigi Prefecture,乃木参道,36.8868420339466,140.001865355895,09370024
栃木県,Tochigi Prefecture,思川桜堤　思川桜並木,36.3150295679957,139.794198929859,09370025
栃木県,Tochigi Prefecture,千本松牧場,36.9237568885447,139.933339347346,09370029
栃木県,Tochigi Prefecture,太平山,36.3600930387321,139.696344981815,09370010
栃木県,Tochigi Prefecture,黒磯公園,36.9765933413694,140.05380690984,09370016
栃木県,Tochigi Prefecture,大金桜づつみウォーキングトレイル,36.6594782570577,140.110876770751,09370027
栃木県,Tochigi Prefecture,ゆうゆうパーク,36.6730340691591,139.954129164489,09370028
栃木県,Tochigi Prefecture,八幡山公園,36.570233876438,139.88609954745,09370011
栃木県,Tochigi Prefecture,かしの森公園,36.5720059192104,140.013898852143,09370012
栃木県,Tochigi Prefecture,冨士山自然公園,36.5780163492544,140.075323474103,09370013
群馬県,Gunma Prefecture,桜山公園,36.1657920340823,139.021529971104,10370001
群馬県,Gunma Prefecture,妙義神社しだれ桜,36.3009430824172,138.764145124288,10370003
群馬県,Gunma Prefecture,高崎城址公園,36.3240348036031,139.004084134194,10370006
群馬県,Gunma Prefecture,城之内公園,36.2618786150203,139.414172938145,10370010
群馬県,Gunma Prefecture,沼田公園(沼田城址),36.6483307130799,139.03822636751,10370011
群馬県,Gunma Prefecture,富岡製糸場,36.2542602372573,138.887896996072,10370021
群馬県,Gunma Prefecture,休泊川,36.2379709533709,139.401645079335,10370022
群馬県,Gunma Prefecture,高崎観音山,36.3109458013827,138.981056649265,10370013
群馬県,Gunma Prefecture,未来へはばたけ　山田製作所桐生が岡動物園,36.4198804116176,139.339551860727,10370014
群馬県,Gunma Prefecture,赤城南面千本桜,36.4734420682946,139.189881824732,10370015
群馬県,Gunma Prefecture,伊香保グリーン牧場のソメイヨシノ,36.4987850866402,138.945370964495,10370020
群馬県,Gunma Prefecture,老神温泉,36.6712012627333,139.209741070229,10370018
群馬県,Gunma Prefecture,伊香保グリーン牧場のヤエザクラ,36.4987850862909,138.945350966155,10370017
群馬県,Gunma Prefecture,華蔵寺公園,36.3425462280415,139.198987095223,10370016
群馬県,Gunma Prefecture,さくらの里,36.2860943354905,138.74495740149,10370007
群馬県,Gunma Prefecture,水上温泉(諏訪峡付近),36.7640671273789,138.969156775017,10370019
埼玉県,Saitama Prefecture,さくら堤公園,36.0294946925273,139.484107829439,11370018
埼玉県,Saitama Prefecture,吉見百穴周辺,36.0396625145683,139.421682545707,11370019
埼玉県,Saitama Prefecture,幸手権現堂桜堤(県営権現堂公園),36.0924921308437,139.72321507109,11370002
埼玉県,Saitama Prefecture,城山公園,35.990019635478,139.525366220438,11370005
埼玉県,Saitama Prefecture,飯能市名栗湖,35.8752556667495,139.167901191814,11370006
埼玉県,Saitama Prefecture,県営狭山稲荷山公園,35.8457128536218,139.398443405512,11370007
埼玉県,Saitama Prefecture,杉戸西近隣公園,36.049686452827,139.70852826168,11370008
埼玉県,Saitama Prefecture,都幾川桜堤,36.0326215672013,139.324330954925,11370011
埼玉県,Saitama Prefecture,国営武蔵丘陵森林公園,36.0698083324747,139.366855711102,11370023
埼玉県,Saitama Prefecture,こだま千本桜,36.1821023492573,139.139449426949,11370024
埼玉県,Saitama Prefecture,高尾さくら公園,36.0249655685537,139.506526176127,11370028
埼玉県,Saitama Prefecture,城ヶ谷堤,36.0105570936363,139.505606915864,11370029
埼玉県,Saitama Prefecture,岩槻城址公園,35.9512870382019,139.711992504463,11370032
埼玉県,Saitama Prefecture,所沢航空記念公園,35.7956095218131,139.473389488096,11370036
埼玉県,Saitama Prefecture,天覧山・中央公園,35.8586099432472,139.310800090474,11370047
埼玉県,Saitama Prefecture,若泉公園,36.2439265135122,139.183932886105,11370037
埼玉県,Saitama Prefecture,沼辺公園,35.8916159740401,139.858173111544,11370038
埼玉県,Saitama Prefecture,伊奈町無線山桜並木,35.9865216353521,139.618438651836,11370040
埼玉県,Saitama Prefecture,さくらの山公園,35.9637783774493,139.29265675513,11370041
埼玉県,Saitama Prefecture,慈光山歴史公苑,36.0103823410023,139.232449609596,11370042
埼玉県,Saitama Prefecture,美の山公園のソメイヨシノ,36.0564653423675,139.113967327792,11370043
埼玉県,Saitama Prefecture,城山稲荷神社,36.243846667194,139.192242199694,11370045
埼玉県,Saitama Prefecture,みさと公園,35.7868674322233,139.872726725681,11370046
埼玉県,Saitama Prefecture,鶴ヶ島市運動公園,35.9226946315915,139.399129804125,11370050
埼玉県,Saitama Prefecture,美の山公園のヤマザクラ,36.0565053365177,139.113877333424,11370051
埼玉県,Saitama Prefecture,西武園ゆうえんち,35.7693717502974,139.440303443923,11370052
埼玉県,Saitama Prefecture,東武動物公園,36.0202697781274,139.718768765604,11370053
埼玉県,Saitama Prefecture,サンアメニティ北本キャンプフィールド,36.0225358457316,139.507516205774,11370055
埼玉県,Saitama Prefecture,忍城,36.1379325567818,139.453355390749,11370058
埼玉県,Saitama Prefecture,丸墓山古墳,36.1292939200494,139.478503699923,11370059
埼玉県,Saitama Prefecture,古代蓮の里,36.1308141427413,139.500561798006,11370060
埼玉県,Saitama Prefecture,鎌北湖,35.916393426774,139.291569027155,11370012
埼玉県,Saitama Prefecture,熊谷桜堤,36.13620154133,139.384621178817,11370013
埼玉県,Saitama Prefecture,長瀞,36.0995306969116,139.111725531165,11370014
埼玉県,Saitama Prefecture,城山公園,36.1932209465632,139.127229929856,11370016
埼玉県,Saitama Prefecture,大宮公園,35.9186391064542,139.630480777174,11370017
埼玉県,Saitama Prefecture,さくら通り,35.8814068670846,139.84678452741,11370020
埼玉県,Saitama Prefecture,与野公園,35.8813628579608,139.616993613548,11370022
埼玉県,Saitama Prefecture,唐沢川の桜堤,36.1911938326949,139.280047331719,11370001
埼玉県,Saitama Prefecture,古利根川堤,35.9237016258532,139.80571599082,11370010
埼玉県,Saitama Prefecture,玉淀河原,36.1110009247717,139.195008086447,11370049
埼玉県,Saitama Prefecture,鴻巣公園,36.0545325562326,139.515124100752,11370030
埼玉県,Saitama Prefecture,元荒川の桜並木,36.106415939896,139.454046784411,11370031
埼玉県,Saitama Prefecture,北越谷元荒川堤,35.8984737526049,139.772989870258,11370003
埼玉県,Saitama Prefecture,羊山公園,35.983062726405,139.087222928501,11370033
千葉県,Chiba Prefecture,泉自然公園,35.5771060225296,140.225047123306,12370021
千葉県,Chiba Prefecture,市制記念公園,35.7821702998632,140.008135696245,12370023
千葉県,Chiba Prefecture,小中池公園,35.515933654611,140.287394761829,12370024
千葉県,Chiba Prefecture,本土寺,35.8401927079609,139.928799613641,12370001
千葉県,Chiba Prefecture,亥鼻公園,35.6047913384351,140.126414040091,12370002
千葉県,Chiba Prefecture,高家神社,34.9624869515728,139.949618295825,12370005
千葉県,Chiba Prefecture,南房総市千倉総合運動公園,34.9722358321434,139.945228211565,12370006
千葉県,Chiba Prefecture,成田ゆめ牧場,35.8692877477581,140.395489515504,12370026
千葉県,Chiba Prefecture,大房岬自然公園,35.0389263942036,139.813286098788,12370029
千葉県,Chiba Prefecture,千葉市動物公園,35.6454270078793,140.127322093737,12370028
千葉県,Chiba Prefecture,成田山公園,35.7858453896556,140.322029458193,12370009
千葉県,Chiba Prefecture,茂原公園,35.4303027649098,140.284598936624,12370011
千葉県,Chiba Prefecture,佐倉城址公園,35.7220803609434,140.216171185569,12370012
千葉県,Chiba Prefecture,八鶴湖畔,35.5611300403314,140.357236880524,12370013
千葉県,Chiba Prefecture,城山公園,34.9819532555827,139.857225072808,12370014
千葉県,Chiba Prefecture,小見川城山公園,35.8593722704162,140.593693511209,12370015
千葉県,Chiba Prefecture,香取神宮,35.8860482820049,140.528707680064,12370016
千葉県,Chiba Prefecture,太田山公園,35.3797121212654,139.937960054233,12370017
千葉県,Chiba Prefecture,千葉こどもの国　KidsDom,35.4894937806882,140.13270882582,12370025
千葉県,Chiba Prefecture,千葉公園,35.6187396804,140.116904187677,12370019
千葉県,Chiba Prefecture,清水公園,35.9582787540933,139.853040468533,12370020
千葉県,Chiba Prefecture,マザー牧場,35.2451565753494,139.941505954929,12370010
千葉県,Chiba Prefecture,佐原公園(諏訪公園),35.8893872412509,140.489570776648,12370004
千葉県,Chiba Prefecture,宗吾霊堂,35.7616072402528,140.279554101735,12370008
神奈川県,Kanagawa Prefecture,県立三ツ池公園,35.5230519468447,139.660716479656,14370016
神奈川県,Kanagawa Prefecture,飯山白山森林公園,35.4721111748995,139.304588401462,14370001
神奈川県,Kanagawa Prefecture,津久井湖城山公園周辺の桜,35.5868884698917,139.28006515356,14370003
神奈川県,Kanagawa Prefecture,城山公園,35.4383667978866,139.419870380959,14370004
神奈川県,Kanagawa Prefecture,綾西緑地,35.4340470768878,139.409391450121,14370006
神奈川県,Kanagawa Prefecture,野毛山動物園・野毛山公園,35.4466294580998,139.622763150307,14370019
神奈川県,Kanagawa Prefecture,寒川神社の表参道と境内,35.3794524523394,139.38282617,14370020
神奈川県,Kanagawa Prefecture,宮城野早川堤,35.2536500906351,139.049769622482,14370021
神奈川県,Kanagawa Prefecture,さがみ湖リゾート　プレジャーフォレスト,35.6048251731245,139.201160880713,14370022
神奈川県,Kanagawa Prefecture,アネスト岩田ターンパイク箱根　御所の入駐車場付近,35.2195548879838,139.115635722115,14370024
神奈川県,Kanagawa Prefecture,大岡川プロムナード,35.4233815527951,139.600326084079,14370025
神奈川県,Kanagawa Prefecture,源氏山公園,35.3265309242083,139.5437752398,14370026
神奈川県,Kanagawa Prefecture,弘法山公園,35.3720607965174,139.242768142131,14370028
神奈川県,Kanagawa Prefecture,横浜市立金沢動物園,35.3487395210697,139.599439594357,14370029
神奈川県,Kanagawa Prefecture,箱根強羅公園,35.2485705532574,139.045150239993,14370030
神奈川県,Kanagawa Prefecture,恩賜箱根公園,35.1962158204702,139.026104232269,14370031
神奈川県,Kanagawa Prefecture,生田緑地,35.6109308000853,139.560690740681,14370032
神奈川県,Kanagawa Prefecture,小田原城址公園,35.250862209473,139.154001094429,14370008
神奈川県,Kanagawa Prefecture,鶴岡八幡宮,35.3258012211057,139.556304232866,14370009
神奈川県,Kanagawa Prefecture,衣笠山公園,35.2490512438748,139.660129143926,14370010
神奈川県,Kanagawa Prefecture,三溪園,35.4173232513717,139.660471367955,14370011
神奈川県,Kanagawa Prefecture,山北鉄道公園(御殿場線沿い桜並木の通り),35.360309181749,139.078362337081,14370015
神奈川県,Kanagawa Prefecture,箱根(湯本),35.2331532748907,139.106555850103,14370012
神奈川県,Kanagawa Prefecture,箱根(芦ノ湖・仙石原),35.265698050761,139.006762639498,14370014
神奈川県,Kanagawa Prefecture,東原桜並木,35.4761228979441,139.427797984212,14370018
神奈川県,Kanagawa Prefecture,光綾公園,35.4453762593068,139.431959054267,14370005
山梨県,Yamanashi Prefecture,大善寺,35.6557717253137,138.743246564777,19370001
山梨県,Yamanashi Prefecture,山の神千本桜,35.5570791115627,138.561766180692,19370002
山梨県,Yamanashi Prefecture,妙了寺の桜,35.6054717790772,138.43831420528,19370003
山梨県,Yamanashi Prefecture,山高神代桜,35.7803318432268,138.367742015416,19370017
山梨県,Yamanashi Prefecture,舞鶴城公園,35.6641478282336,138.571430448437,19370004
山梨県,Yamanashi Prefecture,金櫻神社,35.7693363083226,138.556036883802,19370005
山梨県,Yamanashi Prefecture,河口湖畔(北岸),35.5231762977497,138.765570815686,19370006
山梨県,Yamanashi Prefecture,甚六桜,35.673479830356,138.743195753684,19370009
山梨県,Yamanashi Prefecture,八代ふるさと公園,35.6026656979729,138.645487128787,19370020
山梨県,Yamanashi Prefecture,新倉山浅間公園(忠霊塔付近),35.5012292708626,138.801388851483,19370021
山梨県,Yamanashi Prefecture,岩殿山丸山公園,35.618679301745,138.949861113263,19370010
山梨県,Yamanashi Prefecture,清春芸術村,35.8223070970942,138.353061302031,19370011
山梨県,Yamanashi Prefecture,さくら温泉通り,35.6578298074959,138.646054541807,19370012
山梨県,Yamanashi Prefecture,冨士御室浅間神社,35.5099573693343,138.745973051902,19370013
山梨県,Yamanashi Prefecture,武田神社,35.6866755229101,138.57739891554,19370014
山梨県,Yamanashi Prefecture,大法師公園,35.5459584411053,138.455285535915,19370016
長野県,Nagano Prefecture,福王寺,36.2609299422556,138.339352245571,20370003
長野県,Nagano Prefecture,東山夢の郷公園(夢農場),36.4079867110869,137.909871143171,20370004
長野県,Nagano Prefecture,大西公園,35.5607795185851,138.035229739116,20370007
長野県,Nagano Prefecture,鵜山の桜並木,36.3761198810252,137.896213744623,20370039
長野県,Nagano Prefecture,軽井沢プリンスホテル,36.3374568998215,138.633784269581,20370044
長野県,Nagano Prefecture,戸倉宿キティパーク,36.4949217234931,138.156676643353,20370041
長野県,Nagano Prefecture,平尾山公園,36.2790810014283,138.511137143145,20370045
長野県,Nagano Prefecture,小諸城址懐古園,36.3268442525572,138.417242741958,20370010
長野県,Nagano Prefecture,上田城跡公園,36.403083094161,138.24527351381,20370011
長野県,Nagano Prefecture,戸倉上山田温泉　城山の桜,36.4792730458849,138.136559034612,20370012
長野県,Nagano Prefecture,雲上殿,36.6703235211721,138.188665910829,20370013
長野県,Nagano Prefecture,長野市城山公園,36.6636542839517,138.191495982855,20370014
長野県,Nagano Prefecture,茨城牧場　長野支場,36.255603167351,138.491369865778,20370015
長野県,Nagano Prefecture,稲荷山公園,36.1936396294838,138.481893505703,20370016
長野県,Nagano Prefecture,飯山城址,36.8565967100653,138.36687253443,20370017
長野県,Nagano Prefecture,国宝松本城,36.2395357645686,137.969173973865,20370018
長野県,Nagano Prefecture,松本市城山公園,36.2467647459509,137.955124807812,20370019
長野県,Nagano Prefecture,大町公園,36.5049156444447,137.869850004137,20370020
長野県,Nagano Prefecture,水月公園,36.0846043837759,138.086401371465,20370021
長野県,Nagano Prefecture,高島公園,36.0388497318719,138.1124013188,20370022
長野県,Nagano Prefecture,臥竜公園,36.6445584335536,138.312126843683,20370023
長野県,Nagano Prefecture,光城山,36.3208664568099,137.934333122781,20370025
長野県,Nagano Prefecture,松代城跡,36.5659948083462,138.196000105209,20370026
長野県,Nagano Prefecture,弘法山古墳,36.2128788519689,137.982694078355,20370027
長野県,Nagano Prefecture,飯山西大滝ダム,36.9778357999863,138.484677168698,20370037
長野県,Nagano Prefecture,荒神山公園,35.9665653595739,137.991954649988,20370038
長野県,Nagano Prefecture,飯田市大宮通り桜並木,35.5206201874721,137.82760883102,20370031
長野県,Nagano Prefecture,泰阜村総合グラウンド,35.3790856362306,137.845363872974,20370033
長野県,Nagano Prefecture,春日公園,35.8393181397924,137.944424456059,20370006
長野県,Nagano Prefecture,千人塚公園,35.6694254459764,137.894866394021,20370030
愛知県,Aichi Prefecture,鶴舞公園,35.1543834967772,136.919421118121,23370019
愛知県,Aichi Prefecture,尾張大國霊神社(国府宮),35.2561006209678,136.805145925422,23370003
愛知県,Aichi Prefecture,大山緑地,34.9336782601421,136.985635780671,23370006
愛知県,Aichi Prefecture,諏訪の桜トンネル,34.827496427795,137.375528288944,23370007
愛知県,Aichi Prefecture,五条川の桜並木(大口町),35.3303144676103,136.907314023431,23370008
愛知県,Aichi Prefecture,清洲公園,35.2172354000073,136.840754757538,23370011
愛知県,Aichi Prefecture,水源公園,35.0490493040758,137.179374378808,23370020
愛知県,Aichi Prefecture,音羽川堤,34.8445136235842,137.319192184149,23370023
愛知県,Aichi Prefecture,東谷山フルーツパーク,35.2516253482218,137.048375931245,23370025
愛知県,Aichi Prefecture,博物館　明治村,35.3399948451719,136.988206859587,23370027
愛知県,Aichi Prefecture,山崎川　四季の道,35.1306464507148,136.943180237825,23370028
愛知県,Aichi Prefecture,桜ネックレス,35.2050849399518,136.740013683503,23370030
愛知県,Aichi Prefecture,愛知県緑化センター,35.1558780921703,137.191658440025,23370034
愛知県,Aichi Prefecture,佐奈川堤,34.8289764093956,137.383537555634,23370035
愛知県,Aichi Prefecture,名古屋城,35.183630008382,136.898801484016,23370037
愛知県,Aichi Prefecture,明石公園(愛知県),34.9054312360732,136.98303729702,23370038
愛知県,Aichi Prefecture,亀城公園,34.9893022925257,136.984603305386,23370039
愛知県,Aichi Prefecture,八事山　興正寺,35.1399557917162,136.962458208173,23370041
愛知県,Aichi Prefecture,岡崎公園,34.9565488393097,137.158840343047,23370013
愛知県,Aichi Prefecture,定光寺公園,35.2779732799934,137.091311152372,23370014
愛知県,Aichi Prefecture,木曽川堤,35.3566498934942,136.806711165957,23370016
愛知県,Aichi Prefecture,桜淵公園,34.8938815922907,137.505204462857,23370017
愛知県,Aichi Prefecture,愛知県民の森,34.9946729294153,137.626449752831,23370018
愛知県,Aichi Prefecture,荒子川公園,35.1031279449907,136.8602183948,23370032
愛知県,Aichi Prefecture,愛・地球博記念公園(モリコロパーク),35.1770540211917,137.088266051774,23370036
愛知県,Aichi Prefecture,岩屋堂公園,35.2400682705383,137.144908446338,23370010
愛知県,Aichi Prefecture,犬山市木曽川河畔一帯,35.3897987106317,136.941978405795,23370015
新潟県,Niigata Prefecture,新発田城址公園,37.9542160275478,139.324062503507,15370002
新潟県,Niigata Prefecture,弁天潟風致公園,37.9637939041319,139.261147287626,15370004
新潟県,Niigata Prefecture,鷲ノ木桜遊歩道公園,37.8461523115063,139.02209255753,15370005
新潟県,Niigata Prefecture,湯沢中央公園,36.9354762197946,138.82182111924,15370006
新潟県,Niigata Prefecture,魚野川桜づつみ,37.2192782474882,138.958266720684,15370007
新潟県,Niigata Prefecture,小出公園,37.2269973270047,138.952836816237,15370008
新潟県,Niigata Prefecture,瓢湖水きん公園,37.8367470696969,139.236905150401,15370009
新潟県,Niigata Prefecture,天朝山公園,37.8374468254311,139.227205923703,15370010
新潟県,Niigata Prefecture,信濃川やすらぎ堤緑地,37.9118455985447,139.04004804169,15370011
新潟県,Niigata Prefecture,真野公園,37.9544889317593,138.34700363558,15370024
新潟県,Niigata Prefecture,新江の桜並木,37.7703839000706,139.221569479508,15370029
新潟県,Niigata Prefecture,五頭山麓いこいの森,37.8210100616674,139.311829652489,15370030
新潟県,Niigata Prefecture,村松公園,37.6925916383562,139.188225830393,15370012
新潟県,Niigata Prefecture,秋葉公園,37.7882505152618,139.137195664133,15370013
新潟県,Niigata Prefecture,新潟県立鳥屋野潟公園,37.8776392958996,139.042259432955,15370014
新潟県,Niigata Prefecture,大河津分水桜並木,37.6155738074291,138.840788231091,15370015
新潟県,Niigata Prefecture,弥彦公園(早咲き),37.698694711299,138.829025380956,15370016
新潟県,Niigata Prefecture,弥彦公園(遅咲き),37.698694711299,138.829025380956,15370017
新潟県,Niigata Prefecture,経塚山公園,37.0140778925322,138.253904665679,15370026
新潟県,Niigata Prefecture,加治川堤,37.9896918173186,139.300262846696,15370027
新潟県,Niigata Prefecture,白山公園,37.9141853177197,139.0382980793,15370028
新潟県,Niigata Prefecture,高田城址公園,37.1096777161166,138.256710031103,15370019
新潟県,Niigata Prefecture,赤坂山公園,37.3586360687876,138.541894884034,15370020
新潟県,Niigata Prefecture,悠久山公園,37.4307742831412,138.881403366515,15370021
新潟県,Niigata Prefecture,美山公園,37.0236899807615,137.859816952065,15370022
新潟県,Niigata Prefecture,新穂ダム,38.0066651238789,138.448502803797,15370023
富山県,Toyama Prefecture,内川周辺の桜並木,36.7784427825504,137.09095209784,16370001
富山県,Toyama Prefecture,富山県常願寺川公園,36.6928152948364,137.282940095702,16370002
富山県,Toyama Prefecture,安居寺公園,36.6018180825521,136.885317307911,16370004
富山県,Toyama Prefecture,小矢部川公園千本桜,36.5575926320236,136.874960204288,16370017
富山県,Toyama Prefecture,東洋紡(株)　富山事業所　庄川工場,36.7372064600296,137.048977482423,16370018
富山県,Toyama Prefecture,薬勝寺池公園,36.7003610506233,137.086166090342,16370019
富山県,Toyama Prefecture,下条川千本桜,36.7222189559698,137.100093927259,16370020
富山県,Toyama Prefecture,県民公園太閤山ランド,36.6930321539834,137.104454908894,16370021
富山県,Toyama Prefecture,富山市民俗民芸村,36.7090319052187,137.188187218276,16370022
富山県,Toyama Prefecture,庄川水記念公園,36.5737429915544,136.994439537949,16370023
富山県,Toyama Prefecture,城址公園,36.6928340434974,137.211416034905,16370024
富山県,Toyama Prefecture,あさひ舟川　春の四重奏,36.939083450053,137.540347379419,16370025
富山県,Toyama Prefecture,城山公園,36.681589147012,136.862235552043,16370005
富山県,Toyama Prefecture,岸渡川堤,36.7119370931721,136.930488486369,16370006
富山県,Toyama Prefecture,高岡古城公園,36.7493147193585,137.023469043409,16370007
富山県,Toyama Prefecture,朝日山公園,36.8545027563859,136.982707585595,16370008
富山県,Toyama Prefecture,呉羽山公園,36.7089018690005,137.185317462596,16370010
富山県,Toyama Prefecture,常西用水　プロムナード公園,36.6117543416221,137.304492038009,16370011
富山県,Toyama Prefecture,宮野運動公園,36.866540090881,137.476316037244,16370012
富山県,Toyama Prefecture,松川公園,36.6944638901257,137.212615860218,16370013
富山県,Toyama Prefecture,城ケ山公園,36.5739053951275,137.133038019882,16370014
富山県,Toyama Prefecture,富山県中央植物園,36.6603370099476,137.182249953367,16370015
石川県,Ishikawa Prefecture,石川県農林総合研究センター　林業試験場　樹木公園,36.4305721269401,136.64073550488,17370001
石川県,Ishikawa Prefecture,總持寺祖院,37.286972760028,136.768645451726,17370003
石川県,Ishikawa Prefecture,能登町柳田植物公園,37.3342341155576,137.135652795805,17370013
石川県,Ishikawa Prefecture,七尾市希望の丘公園,37.0303740775021,136.990288858535,17370015
石川県,Ishikawa Prefecture,犀川緑地,36.5689872485028,136.636529481306,17370017
石川県,Ishikawa Prefecture,熊坂川河畔,36.3044797974738,136.307748964899,17370004
石川県,Ishikawa Prefecture,大堰宮公園,36.2861925230531,136.351806147934,17370005
石川県,Ishikawa Prefecture,芦城公園,36.4094510130764,136.447632514518,17370006
石川県,Ishikawa Prefecture,特別名勝兼六園,36.5619784512384,136.662467649841,17370007
石川県,Ishikawa Prefecture,卯辰山公園,36.5689880102825,136.680145858935,17370008
石川県,Ishikawa Prefecture,小丸山城址公園,37.0457619057006,136.960180650535,17370009
石川県,Ishikawa Prefecture,一本松公園,37.3915640300682,136.909318953233,17370010
石川県,Ishikawa Prefecture,加賀市中央公園,36.3215983763699,136.331216227775,17370016
石川県,Ishikawa Prefecture,河北潟の桜並木　母恋街道,36.6598379430015,136.660113339737,17370018
石川県,Ishikawa Prefecture,能登さくら駅(能登鹿島駅),37.1800564555092,136.898009630666,17370011
石川県,Ishikawa Prefecture,志乎・桜の里　古墳公園,36.8564296381996,136.815991342645,17370012
福井県,Fukui Prefecture,越前陶芸村,35.9365148402433,136.060716422704,18370001
福井県,Fukui Prefecture,九頭竜湖,35.8759333467744,136.749242030006,18370002
福井県,Fukui Prefecture,万葉の里　味真野苑,35.8853634017108,136.237634084816,18370015
福井県,Fukui Prefecture,足羽川桜並木,36.0636537762758,136.20583851662,18370017
福井県,Fukui Prefecture,小浜公園,35.4924366318168,135.733974004798,18370004
福井県,Fukui Prefecture,金崎宮(金ヶ崎公園),35.6644841696808,136.074047840319,18370005
福井県,Fukui Prefecture,西山公園,35.9505954571365,136.182255680584,18370007
福井県,Fukui Prefecture,足羽山公園,36.0510750530733,136.201909422079,18370008
福井県,Fukui Prefecture,勝山弁天桜(九頭竜河畔),36.0583194257453,136.496604614129,18370009
福井県,Fukui Prefecture,丸岡城(霞ヶ城公園),36.1523454473247,136.272108929343,18370010
福井県,Fukui Prefecture,亀山公園,35.986816848105,136.48368897888,18370011
福井県,Fukui Prefecture,松岡公園,36.0893126932891,136.300959435455,18370020
福井県,Fukui Prefecture,吉野瀬川の桜並木,35.9054897320589,136.150790370524,18370022
福井県,Fukui Prefecture,北潟湖畔公園(ソメイヨシノ),36.2583033476875,136.22823769435,18370018
福井県,Fukui Prefecture,花筐公園,35.9191797949656,136.238222478981,18370006
岐阜県,Gifu Prefecture,奥矢作湖畔桜並木,35.2368439189304,137.448533378774,21370037
岐阜県,Gifu Prefecture,墨俣一夜城址・犀川堤,35.3670566994838,136.687580580591,21370001
岐阜県,Gifu Prefecture,寺尾ヶ原千本桜公園,35.5719173582686,136.834758925287,21370003
岐阜県,Gifu Prefecture,平田公園と大榑川桜並木,35.2679765542407,136.645048674692,21370004
岐阜県,Gifu Prefecture,関川の桜,35.4819383985056,136.915826335442,21370005
岐阜県,Gifu Prefecture,吉田川の桜,35.4840083655556,136.926615344111,21370006
岐阜県,Gifu Prefecture,関善光寺の桜,35.4890476220242,136.914906084547,21370007
岐阜県,Gifu Prefecture,愛宕公園,35.7505905286954,136.965369851624,21370009
岐阜県,Gifu Prefecture,城山公園,36.1400240775791,137.263237183542,21370010
岐阜県,Gifu Prefecture,江名子川沿い,36.1463533082011,137.257947331455,21370013
岐阜県,Gifu Prefecture,宮川緑地公園,36.1538824578105,137.255367199079,21370014
岐阜県,Gifu Prefecture,中橋周辺,36.140094002507,137.2593675017,21370016
岐阜県,Gifu Prefecture,霞間ヶ渓,35.4315474243584,136.55148891372,21370018
岐阜県,Gifu Prefecture,生活環境保全林「みたけの森」,35.4219885476504,137.129761328363,21370020
岐阜県,Gifu Prefecture,南山公園,35.4219985450091,137.129671335377,21370043
岐阜県,Gifu Prefecture,新境川堤の桜並木,35.3993259250892,136.84084636615,21370039
岐阜県,Gifu Prefecture,伊吹山ドライブウェイ,35.3715320529135,136.448970191106,21370042
岐阜県,Gifu Prefecture,恵那峡,35.4808670886609,137.40677561148,21370024
岐阜県,Gifu Prefecture,本町公園,35.496017090774,137.49966719931,21370025
岐阜県,Gifu Prefecture,苗木さくら公園,35.5165746273024,137.484517510983,21370026
岐阜県,Gifu Prefecture,水道山,35.4250019914105,136.772870829338,21370030
岐阜県,Gifu Prefecture,岐阜公園長良川堤,35.4382606446812,136.77695987929,21370031
岐阜県,Gifu Prefecture,養老公園,35.2832832478017,136.549485906422,21370032
岐阜県,Gifu Prefecture,谷汲山華厳寺,35.5372471036435,136.607879363893,21370033
岐阜県,Gifu Prefecture,相川水辺公園,35.3731432616024,136.528033550719,21370034
岐阜県,Gifu Prefecture,東照宮(旧松泰寺)境内,36.1341643606146,137.243559087598,21370012
岐阜県,Gifu Prefecture,椛の湖,35.5850975477541,137.49881316881,21370027
静岡県,Shizuoka Prefecture,駿府城公園,34.979317796279,138.383547582913,22370002
静岡県,Shizuoka Prefecture,冨士霊園,35.3673354620583,138.908436125933,22370026
静岡県,Shizuoka Prefecture,さくらの里,34.907267856802,139.090812161973,22370003
静岡県,Shizuoka Prefecture,狩野川さくら公園,35.0472601829728,138.936228554624,22370027
静岡県,Shizuoka Prefecture,黄金崎公園,34.8417991327222,138.762962404161,22370004
静岡県,Shizuoka Prefecture,秋葉ダム千本桜,34.9721588892337,137.829783902539,22370005
静岡県,Shizuoka Prefecture,小國神社,34.8450837080059,137.900013920716,22370006
静岡県,Shizuoka Prefecture,太田川桜堤,34.8425046156098,137.936181035787,22370007
静岡県,Shizuoka Prefecture,駿河平自然公園,35.1723956431113,138.870088286102,22370008
静岡県,Shizuoka Prefecture,粟ヶ岳,34.841866994545,138.068470078553,22370009
静岡県,Shizuoka Prefecture,はままつフラワーパーク,34.7618679704704,137.634469805532,22370029
静岡県,Shizuoka Prefecture,木屋川堤,34.8319924685552,138.32138952826,22370010
静岡県,Shizuoka Prefecture,大石寺,35.2813490261996,138.585946867605,22370012
静岡県,Shizuoka Prefecture,はままつフルーツパーク時之栖,34.8400913210071,137.732788038667,22370031
静岡県,Shizuoka Prefecture,河原町旧堤防,34.8319395499051,138.153973434586,22370033
静岡県,Shizuoka Prefecture,高松神社,34.6537875391841,138.092946705293,22370035
静岡県,Shizuoka Prefecture,勝間田川沿い,34.7386706692199,138.219422293334,22370036
静岡県,Shizuoka Prefecture,那賀川沿いの桜並木,34.7538990980853,138.795223771936,22370037
静岡県,Shizuoka Prefecture,千歳川沿い,35.1405328716832,139.088811588174,22370039
静岡県,Shizuoka Prefecture,桜堤遊歩道,35.1452591950458,138.907266447871,22370043
静岡県,Shizuoka Prefecture,伊豆高原桜並木,34.8882401253796,139.104171928518,22370013
静岡県,Shizuoka Prefecture,三嶋大社,35.121291964014,138.919026574689,22370015
静岡県,Shizuoka Prefecture,御殿山,35.1212065121011,138.606382543677,22370017
静岡県,Shizuoka Prefecture,静岡浅間神社,34.9833272322382,138.375808041079,22370018
静岡県,Shizuoka Prefecture,家山の桜トンネル,34.9326074421664,138.077245171927,22370020
静岡県,Shizuoka Prefecture,法多山,34.735716728571,137.975732667737,22370022
静岡県,Shizuoka Prefecture,浜松城公園,34.711884905601,137.72543455223,22370023
静岡県,Shizuoka Prefecture,奥山公園,34.8473585321517,137.617627268161,22370025
静岡県,Shizuoka Prefecture,富士仏舎利塔平和公園,35.2864978012068,138.952673073972,22370024
静岡県,Shizuoka Prefecture,鳥羽山公園,34.8580306780693,137.805831146484,22370021
静岡県,Shizuoka Prefecture,香貫山,35.0921943462638,138.877231385482,22370016
静岡県,Shizuoka Prefecture,蓮華寺池公園,34.8743467687637,138.254433138912,22370028
静岡県,Shizuoka Prefecture,藤枝金比羅山,34.8658975219515,138.245814243729,22370019
静岡県,Shizuoka Prefecture,船明ダム周辺,34.8890174894296,137.813029122003,22370044
静岡県,Shizuoka Prefecture,日本平,34.980719065499,138.464790771158,22370014
三重県,Mie Prefecture,君ヶ野ダム公園,34.5988424361081,136.319346532376,24370001
三重県,Mie Prefecture,大滝峡自然公園,34.350320452325,136.401451156001,24370002
三重県,Mie Prefecture,鍋田川堤桜並木,35.0821182101955,136.746748785766,24370005
三重県,Mie Prefecture,亀山公園,34.8566371517895,136.450423777086,24370014
三重県,Mie Prefecture,鳥羽城跡　城山公園,34.4823240569602,136.843638354713,24370017
三重県,Mie Prefecture,湯の山温泉,35.0153801116328,136.446936757867,24370006
三重県,Mie Prefecture,松坂城跡(松阪公園),34.5755785259114,136.525530479934,24370007
三重県,Mie Prefecture,津偕楽公園,34.7317914852969,136.506524866019,24370009
三重県,Mie Prefecture,田丸城跡,34.4907994370032,136.631045620296,24370010
三重県,Mie Prefecture,宮川堤,34.4955898852327,136.686040832388,24370011
三重県,Mie Prefecture,上野公園,34.7703807554602,136.12854448053,24370013
三重県,Mie Prefecture,宮リバー度会パーク,34.4314157554074,136.629138512814,24370003
大阪府,Osaka Prefecture,永楽ダム・永楽ダム周辺,34.372380129145,135.373035550143,27370014
大阪府,Osaka Prefecture,大井関公園,34.3738494528984,135.343317950537,27370001
大阪府,Osaka Prefecture,弘川寺,34.4747141092539,135.655037418274,27370016
大阪府,Osaka Prefecture,岸和田城周辺,34.4590508141858,135.370481771758,27370017
大阪府,Osaka Prefecture,勝運の寺　勝尾寺,34.8658494100287,135.491123022765,27370021
大阪府,Osaka Prefecture,五月山公園,34.8294421792219,135.426720047681,27370008
大阪府,Osaka Prefecture,念法眞教　総本山　金剛寺,34.7141469275962,135.565053867475,27370024
大阪府,Osaka Prefecture,大阪ダイヤモンド地区,34.6994973224046,135.49795011493,27370025
大阪府,Osaka Prefecture,摂津峡公園,34.8750401279771,135.588504512085,27370002
大阪府,Osaka Prefecture,万博記念公園,34.8099361540241,135.53483196709,27370004
大阪府,Osaka Prefecture,辯天宗冥應寺,34.8253747969845,135.551679857052,27370005
大阪府,Osaka Prefecture,大阪城公園,34.686979156523,135.526298336972,27370007
大阪府,Osaka Prefecture,狭山池公園,34.5061388725311,135.547664888698,27370023
大阪府,Osaka Prefecture,星田妙見宮(妙見河原),34.7595040550154,135.678342370552,27370009
大阪府,Osaka Prefecture,慈光苑,34.439443716391,135.416568846978,27370010
大阪府,Osaka Prefecture,大仙公園,34.5590820701772,135.482427869025,27370011
大阪府,Osaka Prefecture,黒鳥山公園,34.4866391606612,135.444754333212,27370012
大阪府,Osaka Prefecture,山中渓の桜,34.3259332997522,135.270136234418,27370013
大阪府,Osaka Prefecture,大阪府立近つ飛鳥博物館,34.5031308732649,135.643787044257,27370022
大阪府,Osaka Prefecture,総本山　四天王寺,34.653882522452,135.516330688613,27370019
大阪府,Osaka Prefecture,毛馬桜之宮公園,34.6953081884387,135.52187832057,27370006
大阪府,Osaka Prefecture,元茨木川緑地,34.8191857756273,135.569808636412,27370015
大阪府,Osaka Prefecture,ひらかたパーク,34.8068283233275,135.639993376536,27370003
滋賀県,Shiga Prefecture,金剛輪寺,35.1612416458454,136.282953660916,25370002
滋賀県,Shiga Prefecture,湖東三山　西明寺,35.1837992526131,136.2840725294,25370003
滋賀県,Shiga Prefecture,「国史跡」釈迦山　百済寺(湖東三山),35.1269254148664,136.288594772404,25370004
滋賀県,Shiga Prefecture,滋賀県立近江富士花緑公園,35.051679226786,136.046058379498,25370018
滋賀県,Shiga Prefecture,古城山(水口岡山城跡),34.9691704375331,136.182630836024,25370025
滋賀県,Shiga Prefecture,にごり池自然公園,35.003765703369,136.123444158643,25370027
滋賀県,Shiga Prefecture,雨山文化運動公園,35.0042742487356,136.043280792788,25370028
滋賀県,Shiga Prefecture,野川の桜,34.8922287682776,136.188413898277,25370029
滋賀県,Shiga Prefecture,鮎河千本桜(うぐい川),34.9554346406661,136.339148469672,25370030
滋賀県,Shiga Prefecture,じゅらくの里,34.9883262380288,136.059510179214,25370031
滋賀県,Shiga Prefecture,醒井養鱒場,35.2997878107752,136.339282603885,25370008
滋賀県,Shiga Prefecture,国宝・彦根城,35.2763088015453,136.252230914535,25370009
滋賀県,Shiga Prefecture,石山寺,34.9605065293357,135.905834222857,25370011
滋賀県,Shiga Prefecture,海津大崎,35.4638557266474,136.079636613471,25370012
滋賀県,Shiga Prefecture,びわ湖バレイ,35.202790643446,135.907492929899,25370013
滋賀県,Shiga Prefecture,三井寺(園城寺),35.0133599503667,135.85283619087,25370014
滋賀県,Shiga Prefecture,豊公園(長浜城),35.3772181663752,136.2612855165,25370015
滋賀県,Shiga Prefecture,南郷水産センター,34.9393289042106,135.912114676322,25370016
滋賀県,Shiga Prefecture,延命公園,35.1139851187626,136.192403356886,25370019
滋賀県,Shiga Prefecture,風車街道,35.3502076875115,136.06847277319,25370023
滋賀県,Shiga Prefecture,永源寺ダム(ダム周辺道路),35.0749417649189,136.333813410422,25370022
滋賀県,Shiga Prefecture,野洲川河畔岩上橋付近,34.9579118878579,136.19672018427,25370026
滋賀県,Shiga Prefecture,清瀧寺徳源院,35.3454137863827,136.388276434249,25370006
滋賀県,Shiga Prefecture,虎御前山,35.4328122056347,136.260463025157,25370007
京都府,Kyoto Prefecture,地蔵禅院,34.8039317639045,135.81922862443,26370001
京都府,Kyoto Prefecture,玉川の桜,34.7984521788433,135.809429690521,26370002
京都府,Kyoto Prefecture,共楽公園,35.4758219622939,135.364905420876,26370038
京都府,Kyoto Prefecture,峯空園,35.5985339479721,135.085013016027,26370039
京都府,Kyoto Prefecture,長岡天満宮八条ヶ池の桜,34.9229167591996,135.688813977067,26370045
京都府,Kyoto Prefecture,善峯寺,34.9380643661251,135.644566954355,26370005
京都府,Kyoto Prefecture,二尊院,35.0211458918,135.668161169632,26370046
京都府,Kyoto Prefecture,淀川河川公園背割堤地区,34.8903504475885,135.70055450143,26370006
京都府,Kyoto Prefecture,和らぎの道(七谷川沿い),35.0454918066203,135.583367090842,26370007
京都府,Kyoto Prefecture,向日神社,34.9441546362002,135.697322292622,26370040
京都府,Kyoto Prefecture,わち山野草の森,35.2655150349711,135.398002355093,26370043
京都府,Kyoto Prefecture,法金剛院,35.0187369806613,135.715747328518,26370044
京都府,Kyoto Prefecture,京都府立関西文化学術研究都市記念公園(けいはんな記念公園),34.745737220677,135.775274954161,26370049
京都府,Kyoto Prefecture,賀茂別雷神社(上賀茂神社),35.0584733757631,135.752692430695,26370052
京都府,Kyoto Prefecture,京都府・緑化センター,35.3392988145274,134.92119855646,26370053
京都府,Kyoto Prefecture,鴻ノ巣山,34.8557958068772,135.795778184072,26370055
京都府,Kyoto Prefecture,大内峠一字観公園,35.5649384346011,135.136150315879,26370059
京都府,Kyoto Prefecture,板列公園,35.5714380136109,135.151848712876,26370060
京都府,Kyoto Prefecture,宇治市植物公園,34.8711741689718,135.796177442866,26370062
京都府,Kyoto Prefecture,元離宮二条城(清流園),35.0149079831826,135.749694685487,26370063
京都府,Kyoto Prefecture,平等院,34.8892924320484,135.807685652912,26370064
京都府,Kyoto Prefecture,旧嵯峨御所　大本山大覚寺(大沢池エリア),35.0282353471092,135.680389827632,26370065
京都府,Kyoto Prefecture,馬坂川桜並木,34.820189274644,135.776271443494,26370066
京都府,Kyoto Prefecture,醍醐寺,34.9514859877547,135.819591800603,26370008
京都府,Kyoto Prefecture,毘沙門堂,35.0014806271567,135.818839561232,26370009
京都府,Kyoto Prefecture,勧修寺,34.9616246879505,135.807262357758,26370010
京都府,Kyoto Prefecture,清水寺,34.9950407196937,135.784702692801,26370011
京都府,Kyoto Prefecture,平安神宮　神苑,35.0160884292768,135.782461909823,26370012
京都府,Kyoto Prefecture,京都府立植物園,35.0491045364577,135.761772107987,26370013
京都府,Kyoto Prefecture,御室(仁和寺),35.0297557633022,135.71352700559,26370015
京都府,Kyoto Prefecture,嵐山,35.0120370433741,135.678310746099,26370017
京都府,Kyoto Prefecture,石清水八幡宮,34.8796615819773,135.700045035876,26370020
京都府,Kyoto Prefecture,宇治橋上流,34.889102484852,135.809545507197,26370021
京都府,Kyoto Prefecture,哲学の道,35.0248177380037,135.796340355306,26370023
京都府,Kyoto Prefecture,円山公園,35.0036397225582,135.7802726648,26370026
京都府,Kyoto Prefecture,龍安寺,35.0342953596553,135.718216407125,26370028
京都府,Kyoto Prefecture,天龍寺,35.0157665693554,135.674010931484,26370030
京都府,Kyoto Prefecture,山科疏水,34.9947814982781,135.827689134716,26370031
京都府,Kyoto Prefecture,浄土宗　総本山知恩院,35.0048296433137,135.78302238165,26370047
京都府,Kyoto Prefecture,元離宮二条城(桜の園),35.0127181953984,135.748434890935,26370033
京都府,Kyoto Prefecture,山城総合運動公園,34.8695744979663,135.805216765803,26370048
京都府,Kyoto Prefecture,木屋町通り,35.0007798394747,135.769453694989,26370061
京都府,Kyoto Prefecture,笠置山自然公園(木津川畔),34.7587486296099,135.935611039197,26370034
京都府,Kyoto Prefecture,福知山城,35.2968170002515,135.129693196941,26370035
京都府,Kyoto Prefecture,傘松公園,35.5868471246715,135.195314393592,26370036
京都府,Kyoto Prefecture,三段池公園,35.3110156029363,135.136641966117,26370050
京都府,Kyoto Prefecture,木津川畔,34.75899859676,135.935261056754,26370057
京都府,Kyoto Prefecture,三千院門跡,35.1197082536524,135.834422823628,26370025
京都府,Kyoto Prefecture,旧嵯峨御所　大本山大覚寺(お堂エリア),35.0279953305143,135.677970039646,26370051
京都府,Kyoto Prefecture,虚空蔵谷川,34.840616464619,135.740483475176,26370056
京都府,Kyoto Prefecture,八瀬周辺,35.0658235648703,135.808527455185,26370014
兵庫県,Hyogo Prefecture,宝塚(花のみち),34.8087029567596,135.344237852691,28370001
兵庫県,Hyogo Prefecture,立雲峡,35.2874029723037,134.84144756915,28370003
兵庫県,Hyogo Prefecture,音水湖(引原ダム)周辺,35.2439925092282,134.549113846132,28370018
兵庫県,Hyogo Prefecture,川代公園,35.0789599900865,135.111814712282,28370024
兵庫県,Hyogo Prefecture,であい公園,35.0726788419837,135.007623654534,28370025
兵庫県,Hyogo Prefecture,氷上さくら公園,35.1633897690569,135.043666484684,28370035
兵庫県,Hyogo Prefecture,水分れ公園,35.1508416193072,135.072754646655,28370020
兵庫県,Hyogo Prefecture,神武山公園,35.5397456191289,134.820697674111,28370021
兵庫県,Hyogo Prefecture,夙川公園(夙川河川敷緑地),34.7394000888176,135.328172377757,28370023
兵庫県,Hyogo Prefecture,白毫寺,35.1960671495759,135.093800816507,28370027
兵庫県,Hyogo Prefecture,神戸総合運動公園,34.679912027118,135.074866153752,28370030
兵庫県,Hyogo Prefecture,高蔵寺,35.1127469520341,135.14478041887,28370031
兵庫県,Hyogo Prefecture,倉町野,35.2295219926326,135.003426781739,28370032
兵庫県,Hyogo Prefecture,黒井川の桜堤,35.1691101689925,135.101591410647,28370033
兵庫県,Hyogo Prefecture,ユニトピアささやま,35.1001191964455,135.195946750916,28370036
兵庫県,Hyogo Prefecture,神戸市立王子動物園,34.7095713023859,135.214993150652,28370004
兵庫県,Hyogo Prefecture,須磨浦公園,34.6376969824651,135.100056005395,28370006
兵庫県,Hyogo Prefecture,兵庫県立明石公園,34.6520735557925,134.991914324626,28370007
兵庫県,Hyogo Prefecture,日岡山公園,34.7776378761722,134.863149237343,28370008
兵庫県,Hyogo Prefecture,鹿島・扇平自然公園,34.8119627489543,134.779804578729,28370009
兵庫県,Hyogo Prefecture,姫路城,34.8366985867869,134.692990649734,28370010
兵庫県,Hyogo Prefecture,龍野公園,34.8668626725704,134.539112040527,28370011
兵庫県,Hyogo Prefecture,赤穂東御崎公園,34.7290252294844,134.41394878161,28370012
兵庫県,Hyogo Prefecture,伊丹市瑞ケ池公園,34.7935355666056,135.400773855716,28370028
兵庫県,Hyogo Prefecture,播磨中央公園　桜の園,34.9357023280408,134.940925500457,28370014
兵庫県,Hyogo Prefecture,須磨寺,34.649745898745,135.111794475762,28370034
兵庫県,Hyogo Prefecture,篠山城跡・王地山公園,35.0739423703007,135.217356178094,28370015
兵庫県,Hyogo Prefecture,出石城跡,35.460425031684,134.873846912137,28370016
兵庫県,Hyogo Prefecture,城崎温泉,35.6258262141109,134.809374651179,28370017
兵庫県,Hyogo Prefecture,丹波市立　大杉ダム自然公園,35.2435060402997,135.102664096239,28370002
兵庫県,Hyogo Prefecture,清滝小学校,35.4884789285366,134.69623037152,28370019
奈良県,Nara Prefecture,葛城山麓公園,34.4764048158542,135.705843121023,29370001
奈良県,Nara Prefecture,平城宮跡,34.6904535331696,135.798135600949,29370022
奈良県,Nara Prefecture,帯解寺,34.6448489122012,135.82682531799,29370003
奈良県,Nara Prefecture,金峯山寺蔵王堂,34.3683390464783,135.858805393067,29370004
奈良県,Nara Prefecture,月ヶ瀬湖畔,34.7069858429554,136.031605450124,29370005
奈良県,Nara Prefecture,法隆寺境内,34.6138606109871,135.734324426938,29370006
奈良県,Nara Prefecture,下北山スポーツ公園,34.0432955830622,135.960121944332,29370032
奈良県,Nara Prefecture,大神神社,34.5287517817848,135.852688515378,29370029
奈良県,Nara Prefecture,奈良公園(ソメイヨシノ),34.6850548757974,135.841942211378,29370011
奈良県,Nara Prefecture,郡山城跡,34.65175733962,135.779098963583,29370013
奈良県,Nara Prefecture,信貴山　朝護孫子寺,34.6089800202717,135.6706199423,29370014
奈良県,Nara Prefecture,三室山,34.6006616931814,135.715456601611,29370015
奈良県,Nara Prefecture,高田千本桜,34.5111616462926,135.737218914998,29370028
奈良県,Nara Prefecture,長谷寺,34.535811972568,135.906843692732,29370020
奈良県,Nara Prefecture,安倍文殊院,34.5036642749773,135.841800574695,29370021
奈良県,Nara Prefecture,柳生芳徳禅寺周辺,34.7309419329112,135.954450754831,29370025
奈良県,Nara Prefecture,談山神社,34.4659586555954,135.861700658031,29370026
奈良県,Nara Prefecture,石上神宮外苑公園,34.5968144629282,135.850465566264,29370016
和歌山県,Wakayama Prefecture,七川ダム湖畔,33.5976386452457,135.696454360755,30370001
和歌山県,Wakayama Prefecture,亀池公園,34.1555113426679,135.259514963051,30370011
和歌山県,Wakayama Prefecture,和歌山城,34.2275121066367,135.171648945268,30370003
和歌山県,Wakayama Prefecture,和歌の浦(高津子山),34.1872861434332,135.156432061105,30370004
和歌山県,Wakayama Prefecture,紀三井寺,34.1848669881694,135.189979386386,30370005
和歌山県,Wakayama Prefecture,道成寺,33.9142456640188,135.174523129926,30370006
和歌山県,Wakayama Prefecture,動鳴気峡,33.7602358374503,135.38637262674,30370007
和歌山県,Wakayama Prefecture,平草原公園,33.6710147180147,135.348439884953,30370008
和歌山県,Wakayama Prefecture,新宮(丹鶴)城跡,33.7296696901175,135.992263714869,30370013
和歌山県,Wakayama Prefecture,根來寺,34.2870982661155,135.316654159145,30370009
和歌山県,Wakayama Prefecture,粉河寺,34.2808404942845,135.405897035652,30370010
広島県,Hiroshima Prefecture,亀居公園,34.2415389866273,132.216433729763,34370001
広島県,Hiroshima Prefecture,住吉堤防敷,34.3487996651417,132.33958856329,34370003
広島県,Hiroshima Prefecture,桂公園,34.3574287926341,132.342477926028,34370004
広島県,Hiroshima Prefecture,真道山千本桜,34.2069668277684,132.453635621936,34370022
広島県,Hiroshima Prefecture,ちゅーピーパーク,34.3067333173495,132.291084528356,34370023
広島県,Hiroshima Prefecture,広島市植物公園,34.3917252197772,132.347945892844,34370026
広島県,Hiroshima Prefecture,福山城公園,34.4908223190715,133.361197179818,34370006
広島県,Hiroshima Prefecture,千光寺公園,34.4111579393569,133.195134639188,34370008
広島県,Hiroshima Prefecture,世羅　甲山ふれあいの里,34.6304636474088,133.147338511417,34370010
広島県,Hiroshima Prefecture,さぎしま　塔の峰千本桜,34.3280652369793,133.104106024844,34370028
広島県,Hiroshima Prefecture,筆影山山頂展望台,34.3759197208717,133.081345711778,34370012
広島県,Hiroshima Prefecture,正福寺山公園,34.3181913822229,132.822959828617,34370013
広島県,Hiroshima Prefecture,音戸の瀬戸公園,34.1953995679571,132.539679008619,34370014
広島県,Hiroshima Prefecture,平和記念公園,34.3927569307646,132.452217185622,34370015
広島県,Hiroshima Prefecture,比治山公園,34.3845881684959,132.473055831079,34370016
広島県,Hiroshima Prefecture,尾関山公園,34.8142486211943,132.839995574421,34370017
広島県,Hiroshima Prefecture,宮島,34.2945050851752,132.317412904797,34370018
広島県,Hiroshima Prefecture,庄原上野公園,34.8579671429987,133.023078356534,34370025
広島県,Hiroshima Prefecture,八千代湖周辺,34.6620510204262,132.617871029296,34370020
広島県,Hiroshima Prefecture,ピースリーホームバンブー総合公園,34.3380711274992,132.930110014506,34370021
広島県,Hiroshima Prefecture,御調八幡宮,34.4705396097984,133.081891309994,34370027
広島県,Hiroshima Prefecture,江波山公園,34.3657795115288,132.434769876709,34370019
鳥取県,Tottori Prefecture,袋川桜土手,35.4989796519477,134.229448654221,31370001
鳥取県,Tottori Prefecture,萩原桜並木,35.4526634891408,133.593013642563,31370017
鳥取県,Tottori Prefecture,木ノ根神社,35.5173258177156,133.549784255588,31370018
鳥取県,Tottori Prefecture,鳥取城跡・久松公園,35.5076088485976,134.236297688105,31370002
鳥取県,Tottori Prefecture,鹿野城跡公園,35.4593409959145,134.063664247634,31370003
鳥取県,Tottori Prefecture,打吹公園,35.4299299328392,133.822705613363,31370004
鳥取県,Tottori Prefecture,名和公園,35.5068859330625,133.492459497074,31370007
鳥取県,Tottori Prefecture,境台場公園,35.5468472964623,133.242718398153,31370009
鳥取県,Tottori Prefecture,湊山公園,35.4267715110118,133.321217407326,31370010
鳥取県,Tottori Prefecture,城山公園・法勝寺川土手,35.336261280319,133.326271154869,31370011
鳥取県,Tottori Prefecture,智頭川畔　桜土手,35.2674544329856,134.230419233457,31370012
鳥取県,Tottori Prefecture,湖山池青島公園,35.5011281153487,134.154634768587,31370016
島根県,Shimane Prefecture,江津丸子山公園,35.011566713477,132.221557850725,32370001
島根県,Shimane Prefecture,チェリーロード,35.5796108551392,133.074580853465,32370003
島根県,Shimane Prefecture,三刀屋川河川敷,35.2923981261426,132.877100477987,32370020
島根県,Shimane Prefecture,安来公園,35.425130445418,133.250163383913,32370004
島根県,Shimane Prefecture,清水公園,35.4029533510942,133.280711867939,32370005
島根県,Shimane Prefecture,松江城山公園,35.4749816270766,133.050577664247,32370007
島根県,Shimane Prefecture,玉湯川堤,35.4226864942338,133.008993525569,32370008
島根県,Shimane Prefecture,斐伊川堤防桜並木,35.2950882485018,132.90057840429,32370009
島根県,Shimane Prefecture,愛宕山公園,35.4400912878783,132.817508627022,32370019
島根県,Shimane Prefecture,一の谷公園,35.3588491932576,132.772606096706,32370011
島根県,Shimane Prefecture,金比羅山公園,34.9897937956756,132.493686252954,32370014
島根県,Shimane Prefecture,城山公園,34.9018358815649,132.074495116477,32370015
島根県,Shimane Prefecture,鷲原公園,34.4534082948483,131.756712154743,32370017
島根県,Shimane Prefecture,野坂の桜ロード,34.7918975710361,132.070510509159,32370021
島根県,Shimane Prefecture,出雲大社神苑,35.3986034315121,132.686181443907,32370012
岡山県,Okayama Prefecture,クリエイト菅谷　キャンプ&リゾート,35.151815896162,133.606076409273,33370001
岡山県,Okayama Prefecture,美甘宿場桜,35.1558357571732,133.622734840711,33370002
岡山県,Okayama Prefecture,三休公園,34.9715689716643,133.823406658916,33370004
岡山県,Okayama Prefecture,レイクパーク加茂,35.2365345921682,134.050195624615,33370006
岡山県,Okayama Prefecture,金川桜並木,34.7967795648827,133.932045684079,33370008
岡山県,Okayama Prefecture,丸山公園,34.5557599662466,133.624142352401,33370009
岡山県,Okayama Prefecture,特別史跡旧閑谷学校,34.7961846490795,134.219471840757,33370010
岡山県,Okayama Prefecture,里見川周辺緑地,34.5407915147214,133.621133291478,33370036
岡山県,Okayama Prefecture,岡山後楽園,34.6675334493159,133.935491348644,33370012
岡山県,Okayama Prefecture,岡山市半田山植物園,34.6917507959418,133.931880533511,33370013
岡山県,Okayama Prefecture,由加山蓮台寺,34.5049393486805,133.850085927684,33370015
岡山県,Okayama Prefecture,みやま公園,34.5176093537203,133.927958876994,33370017
岡山県,Okayama Prefecture,早島公園,34.6064880671786,133.826053248107,33370018
岡山県,Okayama Prefecture,古城山公園,34.5011837503351,133.506584628346,33370019
岡山県,Okayama Prefecture,津山城(鶴山公園),35.0625024223329,134.005287367,33370020
岡山県,Okayama Prefecture,城山公園,34.9861311897571,133.467065582534,33370021
岡山県,Okayama Prefecture,紺屋川美観地区,34.7964941013529,133.617511819227,33370022
岡山県,Okayama Prefecture,芳嵐園,34.8188914396042,134.174774507404,33370024
岡山県,Okayama Prefecture,井原堤,34.6050518894171,133.463583417314,33370027
岡山県,Okayama Prefecture,相原公園,34.5766947442116,133.453375570689,33370028
岡山県,Okayama Prefecture,がいせん桜,35.1768725680806,133.56897833661,33370029
岡山県,Okayama Prefecture,池田動物園,34.6746221851083,133.906523428048,33370038
岡山県,Okayama Prefecture,羅生門さくら公園,34.9373580588725,133.561659972084,33370042
岡山県,Okayama Prefecture,RSKバラ園,34.6469419613642,133.83413461438,33370014
岡山県,Okayama Prefecture,鶴形山公園,34.5974681253113,133.77414797413,33370031
岡山県,Okayama Prefecture,岡山いこいの村(中庭),34.6984951850652,134.224455924631,33370041
岡山県,Okayama Prefecture,種松山公園西園地,34.5413843281164,133.785829586173,33370032
岡山県,Okayama Prefecture,酒津公園,34.6113262231498,133.750109332484,33370025
山口県,Yamaguchi Prefecture,防府天満宮,34.0631268504713,131.574135287003,35370003
山口県,Yamaguchi Prefecture,功山寺,33.9959436972082,130.982217538945,35370004
山口県,Yamaguchi Prefecture,一の坂川,34.1817824741373,131.477677834663,35370005
山口県,Yamaguchi Prefecture,王子山公園,34.3988843731661,131.198321039449,35370007
山口県,Yamaguchi Prefecture,厚狭川河畔,34.1665193460318,131.205131172377,35370008
山口県,Yamaguchi Prefecture,秋吉台家族旅行村,34.2318639141142,131.2942907591,35370010
山口県,Yamaguchi Prefecture,TOSOHPARK永源山,34.0796084869536,131.768748365562,35370022
山口県,Yamaguchi Prefecture,老の山公園,33.9472975369112,130.904156261684,35370028
山口県,Yamaguchi Prefecture,戦場ヶ原公園,33.975524991511,130.931282709192,35370029
山口県,Yamaguchi Prefecture,アデリーホシパーク,33.9827943538619,132.084286617642,35370032
山口県,Yamaguchi Prefecture,今富ダム公園,34.0926680852026,131.253220578804,35370033
山口県,Yamaguchi Prefecture,大原湖(佐波川ダム),34.2977536203329,131.680945613772,35370034
山口県,Yamaguchi Prefecture,花岡八幡宮,34.0393545999353,131.872221625481,35370035
山口県,Yamaguchi Prefecture,火の山公園,33.9682162340158,130.957660854998,35370030
山口県,Yamaguchi Prefecture,錦帯橋周辺,34.1683461379387,132.177650320654,35370011
山口県,Yamaguchi Prefecture,田布施川,33.9552865519154,132.041681422508,35370012
山口県,Yamaguchi Prefecture,周南市徳山動物園,34.062421144311,131.815635262947,35370013
山口県,Yamaguchi Prefecture,毛利氏庭園,34.0628271130811,131.587334204634,35370014
山口県,Yamaguchi Prefecture,切戸川,34.0151971071803,131.867833102202,35370015
山口県,Yamaguchi Prefecture,香山公園,34.1896215488532,131.472707886491,35370016
山口県,Yamaguchi Prefecture,徳佐八幡宮,34.3962938713549,131.726227316158,35370017
山口県,Yamaguchi Prefecture,ときわ公園,33.9481141522663,131.287884355507,35370018
山口県,Yamaguchi Prefecture,日和山公園,33.9547872044148,130.930983688831,35370019
山口県,Yamaguchi Prefecture,萩城跡指月公園,34.4179855537516,131.382874832822,35370020
山口県,Yamaguchi Prefecture,川島堤,34.4012677502639,131.406253660931,35370026
山口県,Yamaguchi Prefecture,笠山,34.4497824822873,131.401741801933,35370027
山口県,Yamaguchi Prefecture,大寧寺,34.3286612676108,131.163017204628,35370021
山口県,Yamaguchi Prefecture,吉香公園,34.1697829193163,132.175649820643,35370031
山口県,Yamaguchi Prefecture,竜王山公園,33.9534415099446,131.169233964129,35370024
山口県,Yamaguchi Prefecture,若山公園,33.9780091186457,131.182771708683,35370036
徳島県,Tokushima Prefecture,於安パーク,34.0258636448651,134.024923464964,36370002
徳島県,Tokushima Prefecture,眉山公園,34.0675981143283,134.536359068758,36370003
徳島県,Tokushima Prefecture,西部公園,34.0689075940326,134.514590816319,36370004
徳島県,Tokushima Prefecture,妙見山公園,34.1788476521839,134.618637113444,36370005
徳島県,Tokushima Prefecture,金竜山農村公園,34.0246312086817,133.877905731515,36370011
徳島県,Tokushima Prefecture,津峯公園,33.8947085010236,134.644808022237,36370008
香川県,Kagawa Prefecture,県立琴弾公園,34.1307357788587,133.644280248839,37370001
香川県,Kagawa Prefecture,朝日山森林公園,34.179992530388,133.759928376403,37370002
香川県,Kagawa Prefecture,丸亀城,34.2861918774726,133.800360128939,37370003
香川県,Kagawa Prefecture,史跡高松城跡玉藻公園,34.3490995260758,134.05095642056,37370008
香川県,Kagawa Prefecture,飯山総合運動公園,34.2672151485501,133.871425100724,37370009
香川県,Kagawa Prefecture,紫雲出山,34.2423930545875,133.599548822875,37370011
香川県,Kagawa Prefecture,不動の滝カントリーパーク,34.1493442960231,133.673336978911,37370012
香川県,Kagawa Prefecture,たからだの里,34.1101206675113,133.797918438361,37370013
香川県,Kagawa Prefecture,水辺公園,34.1235578783897,133.720524247267,37370014
香川県,Kagawa Prefecture,公渕森林公園,34.241351981839,134.104256954849,37370010
香川県,Kagawa Prefecture,県立桃陵公園,34.2684828288504,133.746385426889,37370015
香川県,Kagawa Prefecture,特別名勝　栗林公園,34.330201432867,134.044397835352,37370005
香川県,Kagawa Prefecture,金刀比羅宮,34.1839929693263,133.809554070807,37370007
愛媛県,Ehime Prefecture,開山公園,34.2291351347221,133.064953831352,38370007
愛媛県,Ehime Prefecture,西山興隆寺,33.9055390548522,133.025342020063,38370004
愛媛県,Ehime Prefecture,滝の宮公園,33.9440093770403,133.279359152722,38370014
愛媛県,Ehime Prefecture,武丈公園,33.8992126621303,133.193118377532,38370016
愛媛県,Ehime Prefecture,南楽園(外堀),33.1337625218819,132.505360738453,38370017
愛媛県,Ehime Prefecture,松山城,33.8442810871007,132.766576330955,38370005
愛媛県,Ehime Prefecture,道後公園,33.8483410061804,132.786804464085,38370006
愛媛県,Ehime Prefecture,翠波高原,33.9405856428232,133.537531469173,38370003
愛媛県,Ehime Prefecture,桜三里,33.8507844977121,133.001656508142,38370015
愛媛県,Ehime Prefecture,すすきヶ原入野公園,33.9498311672429,133.417497412308,38370012
愛媛県,Ehime Prefecture,冨士山公園,33.5085034085875,132.560848876416,38370013
愛媛県,Ehime Prefecture,三島公園,33.970601417222,133.558994704673,38370002
愛媛県,Ehime Prefecture,川之江城,34.0130070306151,133.567532043216,38370018
高知県,Kochi Prefecture,高知公園,33.5607147784516,133.531485861208,39370001
高知県,Kochi Prefecture,牧野公園,33.4978572705,133.289248873039,39370003
高知県,Kochi Prefecture,鏡野公園,33.6180919261151,133.719537601781,39370004
高知県,Kochi Prefecture,久礼大坂谷川沿い,33.322554892101,133.224622311509,39370005
高知県,Kochi Prefecture,鮎乃瀬公園,33.4376966025179,134.027610322103,39370008
高知県,Kochi Prefecture,宿毛天満宮,32.9417368986448,132.725061333552,39370011
高知県,Kochi Prefecture,為松公園,32.996834569753,132.92912184955,39370012
高知県,Kochi Prefecture,家地川公園,33.161049488386,133.071282482369,39370015
高知県,Kochi Prefecture,高知県立五台山公園,33.5472669856944,133.575502824764,39370010
福岡県,Fukuoka Prefecture,甘木公園,33.4264690861502,130.666060015445,40370001
福岡県,Fukuoka Prefecture,西公園,33.597385730476,130.375556272436,40370002
福岡県,Fukuoka Prefecture,延命公園,33.020348678167,130.445827004298,40370003
福岡県,Fukuoka Prefecture,勝山公園(小倉城),33.8844937198677,130.873551694993,40370004
福岡県,Fukuoka Prefecture,秋月杉の馬場通り,33.4691150070884,130.693675758464,40370005
福岡県,Fukuoka Prefecture,白野江植物公園,33.936390439308,131.003528511012,40370008
福岡県,Fukuoka Prefecture,勝盛公園,33.6430461376831,130.678469013276,40370028
福岡県,Fukuoka Prefecture,日向神ダムの「千本桜」,33.1566504244001,130.807940655215,40370010
福岡県,Fukuoka Prefecture,発心公園,33.3138806224389,130.637077606209,40370013
福岡県,Fukuoka Prefecture,宇美公園,33.5727107220535,130.510226224193,40370019
福岡県,Fukuoka Prefecture,大宰府政庁跡,33.5144370375296,130.514948515034,40370021
福岡県,Fukuoka Prefecture,四王寺林道・岩屋城跡,33.5259458997928,130.52028754174,40370022
福岡県,Fukuoka Prefecture,太宰府市民の森,33.5208864072543,130.518357934941,40370023
福岡県,Fukuoka Prefecture,宝満宮　竈門神社,33.5289261420255,130.552404737194,40370024
福岡県,Fukuoka Prefecture,久留米城跡,33.327716890792,130.508167675118,40370025
福岡県,Fukuoka Prefecture,福岡城址・舞鶴公園,33.5880969245282,130.387035746741,40370020
福岡県,Fukuoka Prefecture,垣生公園,33.8162879599496,130.698639361761,40370031
福岡県,Fukuoka Prefecture,清水山,33.1501861453919,130.523384585195,40370032
福岡県,Fukuoka Prefecture,草場川の桜並木,33.4357074914075,130.63133247421,40370033
福岡県,Fukuoka Prefecture,御笠川の桜並木,33.5118574585864,130.523257943706,40370034
福岡県,Fukuoka Prefecture,呑山観音寺,33.6588725176869,130.568137447626,40370035
福岡県,Fukuoka Prefecture,大将陣公園,33.6030357613911,130.68042539295,40370007
福岡県,Fukuoka Prefecture,昭和池公園,33.7964944561337,130.949339452474,40370026
福岡県,Fukuoka Prefecture,駕与丁公園,33.6089763875159,130.484146720356,40370015
福岡県,Fukuoka Prefecture,和布刈公園,33.9595373570654,130.968810328627,40370006
福岡県,Fukuoka Prefecture,安部山公園,33.8491681084287,130.908480420621,40370011
福岡県,Fukuoka Prefecture,高塔山公園,33.9030904283072,130.798987031354,40370027
福岡県,Fukuoka Prefecture,福岡市油山市民の森,33.5164643841931,130.375460006198,40370009
佐賀県,Saga Prefecture,小城公園,33.2881556736646,130.196235402532,41370001
佐賀県,Saga Prefecture,旭ヶ岡公園,33.1038235980907,130.093652409024,41370002
佐賀県,Saga Prefecture,鏡山,33.4294575542854,130.024163187315,41370004
佐賀県,Saga Prefecture,唐津城(舞鶴公園),33.4537641590204,129.978625850066,41370005
佐賀県,Saga Prefecture,桜街道,33.3644100010384,130.338420083221,41370006
佐賀県,Saga Prefecture,陶山神社,33.1889410928471,129.898944660517,41370007
佐賀県,Saga Prefecture,名護屋城跡,33.5285742630506,129.870181411972,41370009
佐賀県,Saga Prefecture,西渓公園,33.2569171527709,130.089625694736,41370010
佐賀県,Saga Prefecture,日の隈公園,33.3311738052676,130.352690428325,41370012
佐賀県,Saga Prefecture,御船山楽園,33.1812539837287,130.017375178804,41370013
長崎県,Nagasaki Prefecture,大村公園(二重馬場),32.8965833967785,129.958093208918,42370001
長崎県,Nagasaki Prefecture,西海橋公園,33.0550129811528,129.759442412459,42370002
長崎県,Nagasaki Prefecture,島原城,32.7892120284078,130.367264170886,42370003
長崎県,Nagasaki Prefecture,亀岡公園,33.3678259768279,129.556454868073,42370004
長崎県,Nagasaki Prefecture,大山公園,33.381089334551,129.829901547685,42370005
長崎県,Nagasaki Prefecture,橘公園,32.7847096530964,130.203707961509,42370007
長崎県,Nagasaki Prefecture,原城跡,32.6290171882129,130.254210935608,42370010
長崎県,Nagasaki Prefecture,とけん山公園,32.7258360938664,130.211929989317,42370011
長崎県,Nagasaki Prefecture,権現山展望公園,32.5798434639867,129.739885914295,42370006
長崎県,Nagasaki Prefecture,眉山治山祈念公苑,32.7752933604998,130.358295556569,42370009
熊本県,Kumamoto Prefecture,市房ダム湖周辺,32.3194836846484,131.02070153013,43370001
熊本県,Kumamoto Prefecture,湯の児チェリーライン,32.2303424999907,130.407026599992,43370002
熊本県,Kumamoto Prefecture,熊本城公園二の丸広場,32.8067459970287,130.701835577469,43370019
熊本県,Kumamoto Prefecture,立岡自然公園,32.6772097065768,130.69349223447,43370005
熊本県,Kumamoto Prefecture,蛇ヶ谷公園,32.945698483676,130.55007178381,43370006
熊本県,Kumamoto Prefecture,菊池公園,32.9856288973565,130.818267671701,43370007
熊本県,Kumamoto Prefecture,人吉城跡,32.2108508213862,130.764067845186,43370008
熊本県,Kumamoto Prefecture,岡岳公園,32.6582214855518,130.67906430696,43370010
熊本県,Kumamoto Prefecture,健軍自衛隊通り,32.7825596187166,130.761071771494,43370015
熊本県,Kumamoto Prefecture,大津山公園,33.068275353989,130.548996229472,43370013
熊本県,Kumamoto Prefecture,桜ヶ丘グラウンド,32.5516429925813,130.685208703737,43370017
熊本県,Kumamoto Prefecture,田原坂公園,32.9116039058866,130.651714912136,43370018
大分県,Oita Prefecture,岡城跡,32.9689909666404,131.407349514555,44370001
大分県,Oita Prefecture,城下公園,33.3665606109304,131.531500898964,44370002
大分県,Oita Prefecture,サンリオキャラクターパーク　ハーモニーランド,33.4001572849589,131.546818080022,44370015
大分県,Oita Prefecture,亀山公園,33.3152755601684,130.928303355715,44370009
大分県,Oita Prefecture,臼杵城址,33.1208316112902,131.801549785243,44370013
大分県,Oita Prefecture,大分県護国神社のソメイヨシノ,33.2352863657768,131.642203049267,44370012
大分県,Oita Prefecture,大分城址公園　外苑,33.2397555948511,131.612839982096,44370004
大分県,Oita Prefecture,上野ヶ丘墓地公園,33.2251870554889,131.607251117013,44370007
大分県,Oita Prefecture,平和市民公園,33.2433156201471,131.63608788745,44370011
宮崎県,Miyazaki Prefecture,母智丘公園,31.7497044498558,131.010468613647,45370002
宮崎県,Miyazaki Prefecture,垂水公園,31.9906855635806,131.404874763048,45370003
宮崎県,Miyazaki Prefecture,西都原古墳群,32.1189115276735,131.38651038445,45370008
宮崎県,Miyazaki Prefecture,久峰総合公園,32.0220131866297,131.460628690309,45370009
宮崎県,Miyazaki Prefecture,花立公園,31.7128444775599,131.358841378426,45370013
宮崎県,Miyazaki Prefecture,天岩戸の湯,32.7254659221143,131.34482591947,45370011
宮崎県,Miyazaki Prefecture,観音池公園,31.8251785649851,131.135724736174,45370015
宮崎県,Miyazaki Prefecture,延岡城跡　城山公園,32.5806969635764,131.662956164213,45370014
宮崎県,Miyazaki Prefecture,綾馬事公苑,32.0053611353963,131.241227678231,45370017
宮崎県,Miyazaki Prefecture,舞鶴公園(宮崎県),32.1229731276633,131.502980524614,45370018
宮崎県,Miyazaki Prefecture,遠見山,32.4889775491522,131.707336701343,45370019
宮崎県,Miyazaki Prefecture,串間市総合運動公園,31.4685481544158,131.21839429039,45370007
宮崎県,Miyazaki Prefecture,竹香園,31.6274536971874,131.363774900244,45370006
鹿児島県,Kagoshima Prefecture,大隅湖　アジア・太平洋農村研修村　民族館,31.523825641854,130.840543125814,46370002
鹿児島県,Kagoshima Prefecture,忠元公園,32.0493654756083,130.614167729455,46370004
鹿児島県,Kagoshima Prefecture,霧島神宮,31.8575204642692,130.870005315064,46370005
鹿児島県,Kagoshima Prefecture,城山公園,31.7410813815901,130.782007984301,46370006
鹿児島県,Kagoshima Prefecture,花瀬自然公園,31.1660740568117,130.849108885964,46370007
鹿児島県,Kagoshima Prefecture,高岡公園,31.7555876345208,130.656317754967,46370013
鹿児島県,Kagoshima Prefecture,霧島神話の里公園,31.8635094963633,130.851266595567,46370014
鹿児島県,Kagoshima Prefecture,魚見岳,31.2621003838704,130.654350639389,46370017
鹿児島県,Kagoshima Prefecture,かいもん山麓ふれあい公園,31.1964553099818,130.534393624225,46370019
鹿児島県,Kagoshima Prefecture,寺山いこいの広場,31.8247447127514,130.340030838445,46370016
鹿児島県,Kagoshima Prefecture,霧島市溝辺上床運動公園,31.8250107304573,130.686172079203,46370018
鹿児島県,Kagoshima Prefecture,名勝　仙巌園,31.6174410268854,130.577090695288,46370001
鹿児島県,Kagoshima Prefecture,鹿児島市平川動物公園,31.4625562984848,130.50295398351,46370012
